name,category,category_id,venue_id,lat,long
Farm to Fork,American Restaurant,4bf58dd8d48988d14e941735,5691bcd6498e98773ab2eefe,46.915545,-123.971025
Light House Drive In,American Restaurant,4bf58dd8d48988d14e941735,538cc275498e4ac4370195d0,46.97497713561942,-123.84253347184821
Hong Kong Restaurant,Chinese Restaurant,4bf58dd8d48988d145941735,4c81a0fcd34ca1437ea92480,46.955405259062935,-123.77091833232548
Happy Teriyaki,Chinese Restaurant,4bf58dd8d48988d145941735,4c571d2ab7a31b8db6834fda,46.976606213320906,-123.80471590525818
Chinese Village,Chinese Restaurant,4bf58dd8d48988d145941735,4c489a4e417b20a18f89e1a9,46.974862,-123.846497
Ocean Palace Restaurant,Restaurant,4bf58dd8d48988d1c4941735,4cb8a4d97148f04daa97d1ab,46.974883,-123.817441
Canton Cafe,Chinese Restaurant,4bf58dd8d48988d145941735,4c102a6e81e976b007c20eeb,46.97569919476852,-123.81415722000317
Golden Dragon Cafe,Chinese Restaurant,4bf58dd8d48988d145941735,4da4f26a0437bc50a6e2502d,46.97757850547139,-123.88489255979339
Oishi Teriyaki,Japanese Restaurant,4bf58dd8d48988d111941735,4dd191c87d8b4c6585d8e1c3,46.979669,-123.601202
Mr. Miyagi's Kitchen,Korean Restaurant,4bf58dd8d48988d113941735,5a7fbde42105c32f7c5cc434,46.975567,-123.84922
Mia-C Cafe,Korean Restaurant,4bf58dd8d48988d113941735,58d6fbf6ecb67e3da5fd9332,46.970826,-123.825984
Thai carrot,Thai Restaurant,4bf58dd8d48988d149941735,4cf1b8af899c6ea88c6cf2c1,46.965565999999995,-123.802021
Thai Smiles,Thai Restaurant,4bf58dd8d48988d149941735,506f543de4b05efe489d8e37,46.971037,-123.826769
Thai Peanut,Thai Restaurant,4bf58dd8d48988d149941735,5004b5c9e4b064414271c548,46.973415,-124.139113
Narn’s Rice And Noodle,Vietnamese Restaurant,4bf58dd8d48988d14a941735,5c9a887165cdf8002c0add7d,46.97752380371094,-123.885009765625
Alabama BBQ,BBQ Joint,4bf58dd8d48988d1df931735,55a46eba498e66b0d7840f69,46.908796,-124.11297900000001
Lighthouse Bistro,Bistro,52e81612bcbc57f1066b79f1,5d4c836fd8bf490008e41146,46.886593,-124.11722
The Lighthouse Bistro,Restaurant,4bf58dd8d48988d1c4941735,5ce22cc19de23b002c37f2e7,46.88653564453125,-124.11724090576172
Michael's Meats and Seafood,Butcher,4bf58dd8d48988d11d951735,4d827004d67ca1cd097311fb,46.977520982833916,-123.80722393322642
Samurai Sushi Bar & Grill,Korean Restaurant,4bf58dd8d48988d113941735,569da75d498e7d195636dd43,46.972333,-123.820907
Simpson Avenue Grill,American Restaurant,4bf58dd8d48988d14e941735,531cc791498e2bb6b3ae0743,46.97657497672218,-123.88269711090007
Hearty Galley Restaurant,Burger Joint,4bf58dd8d48988d16c941735,4bcb7d0a68f976b00f3a6183,46.908867811197155,-124.11476756662735
Blue Boar Burgers,American Restaurant,4bf58dd8d48988d14e941735,584de7428cb34e50edf1d220,46.974777,-123.832886
7-Eleven,Convenience Store,4d954b0ea243a5684a65b473,500eeafa6de406feaec699ce,46.9655059,-123.8028268
7-Eleven,Convenience Store,4d954b0ea243a5684a65b473,4d5cb3e5b9b2a143e38a798c,46.9802927,-123.8095593
Lana's Cafe,Café,4bf58dd8d48988d16d941735,4c30f4ed16adc9284befbf9c,46.97375783926297,-123.93029764500689
Luna Rana Cafe,Café,4bf58dd8d48988d16d941735,4efcc2160e6152f77817fcb1,46.95638923430922,-123.77148362723334
All Wrapped Up,Café,4bf58dd8d48988d16d941735,4ca663b9931bb60cb4e092e2,46.979557,-123.60030335967143
"3G's Coffee, Candy, and Deli",Café,4bf58dd8d48988d16d941735,55eddd75498ece8f3f490f39,46.911171,-124.116983
Mermaid Deli & Pub,Deli / Bodega,4bf58dd8d48988d146941735,4a9209f8f964a520ab1c20e3,46.9056590606762,-124.11108655313359
Wynoochee Meats and Deli,Deli / Bodega,4bf58dd8d48988d146941735,564a7619498e154bc5275485,46.978446,-123.599347
C&T Food Mart,Deli / Bodega,4bf58dd8d48988d146941735,4d9cfbb4a695721e6ebb070d,46.979669,-123.604625
Deidra's Deli,Deli / Bodega,4bf58dd8d48988d146941735,4e6e55ad7d8bbfa9af274938,46.97612762451172,-123.87633514404297
Walmart Bakery,Deli / Bodega,4bf58dd8d48988d146941735,5a9ef919e1f228217aab467b,46.97696304321289,-123.80433654785156
La Unica Bakery,Bakery,4bf58dd8d48988d16a941735,4bc8cf190ee495215b635203,46.96890615,-123.82511625
Grays Harbor Farmers market,Arts & Crafts Store,4bf58dd8d48988d127951735,4bb25dc735f0c9b6c52dbb83,46.97612762451172,-123.87633514404297
Polar Berry Froyo,Frozen Yogurt Shop,512e7cae91d4cbb4e5efe0af,533f77e0498eecb8261966c4,46.976551000113,-123.80500585258936
Al's Hum-dingers,Ice Cream Shop,4bf58dd8d48988d1c9941735,4bbf51ca82a2ef3b438b2cd2,46.98112338016599,-123.88555881143878
Scoops Ice Cream and Coffee,Ice Cream Shop,4bf58dd8d48988d1c9941735,56d0b4cecd10b9cf5dac195a,46.972735,-123.817704
Surfer Girl Ice Cream,Ice Cream Shop,4bf58dd8d48988d1c9941735,53b5e6ca498eef48c8334c38,46.909737,-124.114373
Scoop's Ice Cream,Ice Cream Shop,4bf58dd8d48988d1c9941735,4e13ad39d4c023f70538e44c,46.974403381347656,-123.81676483154297
Duffy's Restaurant,Diner,4bf58dd8d48988d147941735,4beee6e9e8c3c928df579992,46.97489698570594,-123.83534800519789
Denny's,Diner,4bf58dd8d48988d147941735,4bf98f765ec320a15a778ad3,46.97131670691397,-123.82171464152634
Bee Hive Restaurant,Diner,4bf58dd8d48988d147941735,4b4a89f4f964a5203a8a26e3,46.97939409154196,-123.60046557083112
America's Diner,Diner,4bf58dd8d48988d147941735,4d863388e83fa143f3b38aa1,46.9713681797003,-123.8214182
Big Catch Cafe,Diner,4bf58dd8d48988d147941735,513f6a05e4b07c5e8c4487b7,46.909315,-124.113898
Oh My Donuts,Donut Shop,4bf58dd8d48988d148941735,5d4b2e0aeadfb00007f114db,46.972702,-123.81953
Bill's XL Bakery,Donut Shop,4bf58dd8d48988d148941735,4cf942ca0df3236ae9a4eca9,46.975112833333334,-123.86996448040009
Scoops,Donut Shop,4bf58dd8d48988d148941735,596179226cf01a44b3cfbf3e,46.887028,-124.104401
Little Richard's House Of Donuts,Donut Shop,4bf58dd8d48988d148941735,4c1a9f06b4e62d7f181ad893,46.9103627,-124.11512341
Taqueria Franco,Food Truck,4bf58dd8d48988d1cb941735,5253096711d25eb1b7c29a5d,46.97196029607693,-123.82232951881109
Taqueria El Tapatio,Food Truck,4bf58dd8d48988d1cb941735,51c77ea7498e3f124f8018c8,46.97757,-123.807791
KFC,Fried Chicken Joint,4d4ae6fc7a7b7dea34424761,4bf735738d30d13a43adfe17,46.97758724352554,-123.80396428583822
Brunch 101,Restaurant,4bf58dd8d48988d1c4941735,5b104f3751950e002c35975b,46.977318,-123.88498
The Fogcutter Cafe,Café,4bf58dd8d48988d16d941735,4df3c13fb61cbd3ec01c7133,46.88653564453125,-124.11724090576172
Amore' Italian Restaurant,Italian Restaurant,4bf58dd8d48988d110941735,4cdb5976cea2224b8354854c,46.97300651325384,-123.81793722263686
Sitka Yoga and Juice Bar,Juice Bar,4bf58dd8d48988d112941735,53188f0d498ee068af47635c,46.97999954223633,-123.88785552978516
Urban Juice Factory,Juice Bar,4bf58dd8d48988d112941735,5d48787857df85000894a440,46.979658,-123.600774
Odysseus,Mediterranean Restaurant,4bf58dd8d48988d1c0941735,4f33db5f7716770f992a75b9,46.88653564453125,-124.11724090576172
Mazatlan,Mexican Restaurant,4bf58dd8d48988d1c1941735,4c2178af9a67a5932219db87,46.97571748693128,-123.80334632726104
El Rancho,Mexican Restaurant,4bf58dd8d48988d1c1941735,515c8a7be4b0bb2fd4388163,46.886988,-124.105645
Taqueria Las Mulitas,Mexican Restaurant,4bf58dd8d48988d1c1941735,4e17747dd1648b834828c3b4,46.972737,-123.81951699999999
El Rancho Family Mexican Restaurant,Mexican Restaurant,4bf58dd8d48988d1c1941735,4b317a4ef964a520a80725e3,46.97958090319923,-123.60083111133058
Las Cabanas,Mexican Restaurant,4bf58dd8d48988d1c1941735,5b5e2761a35dce002c57366a,46.971302,-123.82053
Taqueria Franco,Mexican Restaurant,4bf58dd8d48988d1c1941735,4e1761ad2271b0e971f1b72a,46.97941,-123.886901
Taco Del Mar,Mexican Restaurant,4bf58dd8d48988d1c1941735,51b65414498e1d8cdc7da133,46.967263597105564,-123.80231988816152
Los Arcos,Mexican Restaurant,4bf58dd8d48988d1c1941735,4c0ee8f2c6cf76b0a9918151,46.97683334350586,-123.88240814208984
El Tequilero Mexican Restaurant,Restaurant,4bf58dd8d48988d1c4941735,5db99066ee6a8d000893514b,46.96458579005489,-123.78352761268616
2 Margaritas Grill,Mexican Restaurant,4bf58dd8d48988d1c1941735,50c13e94e4b08a121d08c723,46.976543,-123.882675
La Herencia Mexican Restaurant,Mexican Restaurant,4bf58dd8d48988d1c1941735,5070709d72da636267e8d3dd,46.965054389418476,-123.7834095954895
Los IV Hermanos,Mexican Restaurant,4bf58dd8d48988d1c1941735,4e9789faf790dd407e97024f,46.97768020629883,-123.80258178710938
Rose's Taqueria,Mexican Restaurant,4bf58dd8d48988d1c1941735,4e6d0027d1649db799dcb8d8,46.97709274291992,-123.88623809814453
Los Gallos,Mexican Restaurant,4bf58dd8d48988d1c1941735,4d939ed84f78f04d22b9e6b9,46.9611402330229,-123.80708423238663
Aloha Alabama,BBQ Joint,4bf58dd8d48988d1df931735,55edec3c498e0dbf6c78e07b,46.908796,-124.11297900000001
La Salvadorena,South American Restaurant,4bf58dd8d48988d1cd941735,4c51e03a94790f47613cc7a1,46.97201333721669,-123.8226225973638
Gepetto's Italian Restaurant & Sports Bar,Pizza Place,4bf58dd8d48988d1ca941735,4ce98893f8653704dd9ab7c4,46.979879350265506,-123.5998260712821
Sasquatch Pizza & Wings,Pizza Place,4bf58dd8d48988d1ca941735,4c0ac007340720a16d068793,46.98221989124944,-123.88535407063843
Papa Murphy's,Pizza Place,4bf58dd8d48988d1ca941735,4c64ad66dddfa593245992ff,46.97686516884628,-123.8033850484846
Domino's Pizza,Pizza Place,4bf58dd8d48988d1ca941735,4d41f117aed776ebafe06997,46.975383650717866,-123.86493491559577
Westside Pizza,Pizza Place,4bf58dd8d48988d1ca941735,4da0f2c19935a093e0f0956f,46.98091462624449,-123.60091889149008
Pizza Hut,Pizza Place,4bf58dd8d48988d1ca941735,4c3fc394cc410f47f1bea861,46.974292999999996,-123.818496
Clark's Restaurant,American Restaurant,4bf58dd8d48988d14e941735,4c324e4f7cc0c9b60019f09a,46.905733617088416,-123.71715833099942
Rediviva Restaurant,New American Restaurant,4bf58dd8d48988d157941735,52013263498ec644f18a2f77,46.97482644098638,-123.81710478759817
Savory Faire,Café,4bf58dd8d48988d16d941735,4c645bce11c4a5932122e911,46.9803983039047,-123.60094025119868
Casa Mia Italian Restaurant & Pizzeria,Italian Restaurant,4bf58dd8d48988d110941735,55375455498eeecc231f9400,46.97494604954165,-123.85645367232173
SUBWAY,Sandwich Place,4bf58dd8d48988d1c5941735,4d656ffd072a6ea8f759fd4d,46.97490038508873,-123.86268749061787
SUBWAY,Sandwich Place,4bf58dd8d48988d1c5941735,4c4f700692ce2d7f2272c62f,46.976668175147914,-123.80516787384136
SUBWAY,Sandwich Place,4bf58dd8d48988d1c5941735,4bc7803a92b376b065d64f3a,46.97966751023711,-123.60103430815121
Subway,Sandwich Place,4bf58dd8d48988d1c5941735,4f326ad219836c91c7d5c8a7,46.97004675128331,-123.802969581127
Lytle Seafoods Oyster Shack,Seafood Restaurant,4bf58dd8d48988d1ce941735,4c019a253ab80f472a6d90ff,47.005950927734375,-124.0033187866211
Bennett's Fish Shack,Seafood Restaurant,4bf58dd8d48988d1ce941735,4c60cc91b6f3be9a275c6073,46.910508,-124.115856
The Fishin Hole,Seafood Restaurant,4bf58dd8d48988d1ce941735,5765c4af498e4316b8abad70,46.976162,-123.601439
Blue Buoy,Seafood Restaurant,4bf58dd8d48988d1ce941735,4c29f240e19720a10238fa58,46.909059,-124.11348600000001
Breakwater Seafood And Chowder,Seafood Restaurant,4bf58dd8d48988d1ce941735,4c004dfaca1920a10736ee81,46.97564413534507,-123.81181417844319
The Islander,Seafood Restaurant,4bf58dd8d48988d1ce941735,4fd53e8fe4b0abd665b808fd,46.91141395438786,-124.1161421782193
Billy's Bar and Grill,Bar,4bf58dd8d48988d116941735,4b91f242f964a52091e033e3,46.9755053306668,-123.81353985722603
Ocean Shores Community Club,Gym,4bf58dd8d48988d176941735,4b6d8d26f964a5200f7c2ce3,46.954609999999995,-124.13080900000001
Loge Co Cafe,Snack Place,4bf58dd8d48988d1c7941735,599876aab040561b765ab466,46.873554,-124.103396
Mazatlan,Mexican Restaurant,4bf58dd8d48988d1c1941735,4bef487996edc9b69b954af2,46.97056415609646,-123.82579591034637
GH Wine Sellars,Wine Bar,4bf58dd8d48988d123941735,51c50f67498ed8aada12c5fb,46.97419146550594,-123.81762344097977
Grizzly Den Restaurant And Drive In,American Restaurant,4bf58dd8d48988d14e941735,4b8b0680f964a520f38e32e3,46.98096560380524,-123.90680075492766
Lighthouse Drive In,American Restaurant,4bf58dd8d48988d14e941735,4c00410ddaf9c9b6968afbef,46.97492703944838,-123.84280779581069
Dutch Bros Coffee,Tea Room,4bf58dd8d48988d1dc931735,5ce641b051950e002c83f8ba,46.977405,-123.808403
