name,category,category_id,venue_id,lat,long
Black Market Gourmet,American Restaurant,4bf58dd8d48988d14e941735,4be70effbcef2d7f11cd05e5,43.367785999999995,-124.216749
Sausage Palace,New American Restaurant,4bf58dd8d48988d157941735,4ed2b9b902d5feaa1f088424,43.404407,-124.234166
Kim's Oriental Market,Asian Restaurant,4bf58dd8d48988d142941735,4c62f63a79d1e21e1968d715,43.366259766666666,-124.21381415
Bpj's Thai Gourmet,Asian Restaurant,4bf58dd8d48988d142941735,505b7884e4b066ff88df0b40,43.40662441834122,-124.2365974235429
China Pagoda,Chinese Restaurant,4bf58dd8d48988d145941735,4ea4a3435c5cd12b3692f1da,43.40774154663086,-124.22377014160156
Lucky Dragon,Chinese Restaurant,4bf58dd8d48988d145941735,4c6f3be5b5a5236a6bcb4c52,43.40548398675887,-124.23417091369629
Beijing Chinese Restaurant,Chinese Restaurant,4bf58dd8d48988d145941735,4e35dcfd7d8b0c62b2d97f55,43.3918587,-124.26840662956238
Lucky Dragon Buffet,Chinese Restaurant,4bf58dd8d48988d145941735,4f3277b619836c91c7daafc0,43.4066,-124.233711
Sushi Garden,Japanese Restaurant,4bf58dd8d48988d111941735,51ac0952498e9e3a75eb8c26,43.34274229860559,-124.3268250545136
Kum Yon's,Chinese Restaurant,4bf58dd8d48988d145941735,4c362bba93db0f47219e1d92,43.36059335,-124.21354823333333
ez thia,Thai Restaurant,4bf58dd8d48988d149941735,568475df498ed412f4456579,43.368113,-124.212852
Big Dawg's,BBQ Joint,4bf58dd8d48988d1df931735,520e825611d22452462ed684,43.338565705156725,-124.31818590132525
The Alder Smokehouse,BBQ Joint,4bf58dd8d48988d1df931735,4f323e1f19836c91c7c4452a,43.40661,-124.227751
Elkhorn Barista-Q,BBQ Joint,4bf58dd8d48988d1df931735,55946bb4498e78e06db37cee,43.43545681850792,-124.22052767316362
Coach House,BBQ Joint,4bf58dd8d48988d1df931735,4b7ccb12f964a520b0a52fe3,43.36188,-124.19293
Pork Piggy,BBQ Joint,4bf58dd8d48988d1df931735,4e160180b61c42e7c550a183,43.387121,-124.28119099999999
Gallery Restaurant,American Restaurant,4bf58dd8d48988d14e941735,4c24c760a852c9285da3e36c,43.1879715296548,-124.39022371448743
Mom's Kitchen,American Restaurant,4bf58dd8d48988d14e941735,4c41df32520fa5930e41caac,43.41176748275757,-124.223883
Buzz,American Restaurant,4bf58dd8d48988d14e941735,4da7511c4b22cb9c5c212dfa,43.40437670168328,-124.23433460051092
Pacific Grill,American Restaurant,4bf58dd8d48988d14e941735,4c50fa8d9426c92827cbf472,43.19368337751228,-124.38994974879888
The Broiler,Bar,4bf58dd8d48988d116941735,4bd521566f64952195b96eec,43.174708,-124.18968
Yeongs Gourmet Burger,Burger Joint,4bf58dd8d48988d16c941735,4da8ac5904376c33688e6077,43.40674164465107,-124.22860982039849
Crust & Crumb Cafe,Bakery,4bf58dd8d48988d16a941735,57672482498e5783ee2fa463,43.391685,-124.23896
Top Dog Coffee Co.,Café,4bf58dd8d48988d16d941735,578bc4b1498e9c000dcf7c4c,43.3940315246582,-124.23899841308594
street side delights,Café,4bf58dd8d48988d16d941735,53611db3498e0eb3e073d7af,43.359506,-124.211848
Old Macdonald Turnstand,Deli / Bodega,4bf58dd8d48988d146941735,527d508b498ed04e11689b72,43.2065223141079,-124.39363056788031
Meat Cutting Room,Deli / Bodega,4bf58dd8d48988d146941735,5654ef30498e049f55490116,43.14754104614258,-124.17691040039062
Walmart Bakery,Deli / Bodega,4bf58dd8d48988d146941735,5992bcee345cbe18373a19f1,43.390201568603516,-124.25162506103516
gilly's NY deli,Deli / Bodega,4bf58dd8d48988d146941735,53a1f517498e1fde23d4ba9c,43.367098,-124.213538
lighthouse grocery & deli,Deli / Bodega,4bf58dd8d48988d146941735,514c691bf2e744feeb079382,43.384877,-124.28152800000001
Cakes With Jaz,Bakery,4bf58dd8d48988d16a941735,51e87de6498ea39406a228e8,43.341197,-124.326354
cloudberries,Frozen Yogurt Shop,512e7cae91d4cbb4e5efe0af,5344825a498e94fed04b20b6,43.404299,-124.234381
BJ's Ice Cream,Ice Cream Shop,4bf58dd8d48988d1c9941735,587676a7158b9618a611296d,43.3918302153561,-124.23866629600523
Darrell's Devils Food LLC,Bakery,4bf58dd8d48988d16a941735,5ba3f39e35d3fc002ca752b7,43.36705780029297,-124.21359252929688
Organic Coffee,Pastry Shop,5744ccdfe4b0c0459246b4e2,5b9d88615ba046002cdfcf21,43.43573,-124.220526
Autumn House,Diner,4bf58dd8d48988d147941735,4b9c047cf964a5203f4136e3,43.390262603759766,-124.23828125
Bayside Bakery,Bakery,4bf58dd8d48988d16a941735,4c658925aebea593159d70d0,43.39412165,-124.2390413
Oregon Microgreens,Food Stand,56aa371be4b08b9a8d57350b,5729463b498e48f3b2fe5ddf,43.36790238902214,-124.21908617019653
Generation Organic Bus Mahaffy Farm,Food Truck,4bf58dd8d48988d1cb941735,4e90a334f79014e2ce9ce5c1,43.387795,-124.085121
Food Truckoff,Food Truck,4bf58dd8d48988d1cb941735,5b66269d1c0b34002b7a26b8,43.394601,-124.218466
happy fork,Food Truck,4bf58dd8d48988d1cb941735,57a0f15e498e528303b886f1,43.3388,-124.318041
El Guadalajara,Mexican Restaurant,4bf58dd8d48988d1c1941735,4e0e7a22d164fff335ac4884,43.390362,-124.238449
Angelina’s,Mexican Restaurant,4bf58dd8d48988d1c1941735,59c6c403ccad6b5a5897217d,43.355655,-124.206093
el Tapatio,Mexican Restaurant,4bf58dd8d48988d1c1941735,51e8a4a6498e80d3c168eb3b,43.17499923706055,-124.19024658203125
Atilano's Mexican Food,Mexican Restaurant,4bf58dd8d48988d1c1941735,4c7b16ab2d3ba143497693d0,43.35574686527252,-124.20644
7-Eleven,Convenience Store,4d954b0ea243a5684a65b473,500eeafe6de406feaec69c00,43.3561708803329,-124.205762030069
7-Eleven,Convenience Store,4d954b0ea243a5684a65b473,4c78a9993badb1f743bc4c54,43.4069230467538,-124.239059239626
Papa Murphy's,Pizza Place,4bf58dd8d48988d1ca941735,4e4d3c21bd413c4cc66f9f6a,43.35965246942689,-124.21233150234802
Gino's Pizza,Pizza Place,4bf58dd8d48988d1ca941735,4c1d7921b306c9289bb365b7,43.40705215930939,-124.2306245
Rolling Pin Pizzeria Cafe,Pizza Place,4bf58dd8d48988d1ca941735,5b9f38f39e0d540039a1d081,43.1751477,-124.1899533
Lakeshore Lodge,American Restaurant,4bf58dd8d48988d14e941735,4c4c7b369c8d2d7fff867d6c,43.573083152452035,-124.17371389547674
Chans Wok,Asian Restaurant,4bf58dd8d48988d142941735,508346f2498e54db9e0ae603,43.40762642049767,-124.22381144625619
The Oldestables Restaurant And Pizzeria,American Restaurant,4bf58dd8d48988d14e941735,4c7d4973d598a0931269c262,43.574877977371216,-124.174959
The Plank House Restaurant at the Mill Casino,American Restaurant,4bf58dd8d48988d14e941735,4d7cff20049edcb32560d3c0,43.39409367762881,-124.21812711195811
The Saw Blade Buffet,Buffet,52e81612bcbc57f1066b79f4,4d16a3d1b15cb1f76c07af21,43.39418118489802,-124.21820602982815
Plank House,American Restaurant,4bf58dd8d48988d14e941735,4da331da2939b1f7d4301957,43.393770169135315,-124.21967560721102
Denny's Pizza,Pizza Place,4bf58dd8d48988d1ca941735,4ca3ded5750ca09352d01c67,43.175313,-124.18826200000001
Colleen's,American Restaurant,4bf58dd8d48988d14e941735,4e3ad74db0fbca6e84b99c65,43.18163428333333,-124.18919001666667
Coos Head Food Co-op,Restaurant,4bf58dd8d48988d1c4941735,4e91ee8b8231d8feae8f1f97,43.3651025,-124.2149636
Puerto Vallarta,Mexican Restaurant,4bf58dd8d48988d1c1941735,4c4bad7846240f472276a4f3,43.36665141666667,-124.21443279
Figaro's Pizza,Pizza Place,4bf58dd8d48988d1ca941735,4c352ff666e40f47fae4ca8b,43.175157,-124.189982
Momiji,Sushi Restaurant,4bf58dd8d48988d1d2941735,4bcfc31f046076b07f086f71,43.39360553619965,-124.21982754355349
La costa,Mexican Restaurant,4bf58dd8d48988d1c1941735,4c771b3bd06b224b19a7fdd6,43.39174928,-124.23811912536621
Los Dos Amigos,Mexican Restaurant,4bf58dd8d48988d1c1941735,4d018fd5432f5481a185c354,43.40535134131225,-124.2342736871531
Little Caesars Pizza,Pizza Place,4bf58dd8d48988d1ca941735,4db36fa15da3a76f442a131a,43.39080333709717,-124.24316499
McDonald's,Restaurant,4bf58dd8d48988d1c4941735,51c0a869498ea799ad89a27d,43.3897524,-124.2513478
Tokyo Bistro,Japanese Restaurant,4bf58dd8d48988d111941735,53c9d9f3498eaf7d402ec5ab,43.39234924316406,-124.27565002441406
McDonald's,Restaurant,4bf58dd8d48988d1c4941735,4baa7644f964a520636c3ae3,43.36138951621794,-124.21280443668365
The Stockpot,American Restaurant,4bf58dd8d48988d14e941735,4c89232da0ffb60ce5f827c5,43.3557040140888,-124.20776968845003
McDonald's,Restaurant,4bf58dd8d48988d1c4941735,4e4e1a23bd4101d0d7a24a61,43.392308,-124.2387825
Margaritas Mexican Grill,Mexican Restaurant,4bf58dd8d48988d1c1941735,4d3e30c16e0aa1cd5dcbf22c,43.36787752299126,-124.22001826157772
The Blue Moon Lounge,Diner,4bf58dd8d48988d147941735,4d77dedf7484b60c152543d9,43.359853,-124.213652
Kozy kitchen,American Restaurant,4bf58dd8d48988d14e941735,4b9da184f964a5204cb736e3,43.39133030876882,-124.24332332839553
El Sol,Mexican Restaurant,4bf58dd8d48988d1c1941735,4f32033119833175d609a0c1,43.355815858432116,-124.20697892893841
Domino's Pizza,Pizza Place,4bf58dd8d48988d1ca941735,4d41f0dfaed776eb85b46997,43.38510743839083,-124.25209075212479
Tai's Dynasty,Chinese Restaurant,4bf58dd8d48988d145941735,4c0a9613ffb8c9b672d16b61,43.40690153917075,-124.23139898248164
Dave's Pizza,Pizza Place,4bf58dd8d48988d1ca941735,525718cb11d2ffce6c3febd1,43.37860095720479,-124.22030033222394
Papa Murphy's | Take 'N' Bake Pizza,Restaurant,4bf58dd8d48988d1c4941735,4cfee6e6f7b38cfa1a5bc6c3,43.391937870199705,-124.23812190669364
Shake N Burger,American Restaurant,4bf58dd8d48988d14e941735,4d5881825ba0548117e01146,43.364753046235556,-124.1927061289048
The Boat,Restaurant,4bf58dd8d48988d1c4941735,5ad3edf122d4902cd1d4ce49,43.3613,-124.21191
Cafe Mediterranean,Mediterranean Restaurant,4bf58dd8d48988d1c0941735,4be620f1cf200f47ef46143c,43.408380086534244,-124.22520904363675
Blue Heron Bistro,Bistro,52e81612bcbc57f1066b79f1,4c2bedf7d1a10f4764ccf864,43.368735223864604,-124.21335515154453
Yeong's Place,Burger Joint,4bf58dd8d48988d16c941735,4bff137c4e5d0f4766a87d1f,43.40692238211356,-124.2286785607528
Sumins,Asian Restaurant,4bf58dd8d48988d142941735,4bb3b47735f0c9b672c4bc83,43.366095,-124.21356899999999
KFC,Restaurant,4bf58dd8d48988d1c4941735,4bcf543841b9ef3bb037f8e5,43.39121174336211,-124.24375495643142
The Paus-haus Bay Burger Inn,American Restaurant,4bf58dd8d48988d14e941735,4e3996f114959f8577aacd1c,43.39147882621857,-124.26721878657885
Pancake Mill,American Restaurant,4bf58dd8d48988d14e941735,4bb0dbd6f964a520e2633ce3,43.40110924779605,-124.22185398672866
Outdoor-In,Pizza Place,4bf58dd8d48988d1ca941735,4c49c54b93249c741aa0154d,43.366438150405884,-124.21623766422272
Little Italy,Italian Restaurant,4bf58dd8d48988d110941735,4f78b4f2e4b0cbf9bf53129e,43.367647818986136,-124.21419950416933
EZ Thai Restaurant,Thai Restaurant,4bf58dd8d48988d149941735,4c48e5d0a3ace21ec796da3a,43.36611320671879,-124.21302136251369
The Humboldt Bar and Restaurant,Restaurant,4bf58dd8d48988d1c4941735,4df19ec2c65bf55ee523ff0a,43.405870092540326,-124.22415382941695
Frazier's Restaurant and Bakery,Bakery,4bf58dd8d48988d16a941735,4b7c3c6bf964a5204c862fe3,43.175075,-124.189245
Airport Heights Market,Convenience Store,4d954b0ea243a5684a65b473,4ff8bf99e4b07a70b99b251a,43.40649995049476,-124.2503118352556
City Subs,Sandwich Place,4bf58dd8d48988d1c5941735,4bc8eff7fb84c9b6e81a1a3e,43.3682112736178,-124.21621199415323
Vinny's Smokin' Good Burgers & Sandwiches,Sandwich Place,4bf58dd8d48988d1c5941735,59a175f158002c3c1f73e141,43.39184,-124.238961
Subway,Sandwich Place,4bf58dd8d48988d1c5941735,526577f0498ea088a4d0359f,43.39192635068849,-124.2725102029305
Subway,Sandwich Place,4bf58dd8d48988d1c5941735,5212842e11d2889d92da5e6d,43.17452457064651,-124.18847407942417
Luigi's,Sandwich Place,4bf58dd8d48988d1c5941735,4c5da8876147be9a99aa9209,43.39152,-124.272901
Subway,Sandwich Place,4bf58dd8d48988d1c5941735,4c53198ca724e21e57d937f4,43.359065,-124.21176899999999
Subway,Sandwich Place,4bf58dd8d48988d1c5941735,4bf45126e5eba593c7831f90,43.39104361629735,-124.24342398399
Subway,Sandwich Place,4bf58dd8d48988d1c5941735,4e1f5cfdaeb7fe88ace5bade,43.40448864076679,-124.23435827116396
Crabby Cakes Bakery,Bakery,4bf58dd8d48988d16a941735,5215523911d2395d23c2c716,43.339147,-124.325775
Cafe 1297,Café,4bf58dd8d48988d16d941735,5726d23c498e49d09ff2f41f,43.390628814697266,-124.26515197753906
Miller's At The Cove,American Restaurant,4bf58dd8d48988d14e941735,4e2b382c14955dbf7ad86ed7,43.34132678288198,-124.32643980141157
The Portside,Seafood Restaurant,4bf58dd8d48988d1ce941735,4babc5e6f964a5205ec83ae3,43.34274989855528,-124.32549813578544
High Tide Cafe,Seafood Restaurant,4bf58dd8d48988d1ce941735,4c2f9a2bed37a59373936703,43.33894028504421,-124.32522408971582
Sea Basket,Seafood Restaurant,4bf58dd8d48988d1ce941735,4ba15832f964a520b2ae37e3,43.345341,-124.32399272918701
La Herradura,Mexican Restaurant,4bf58dd8d48988d1c1941735,4bc90f14511f95211f16adc7,43.403848208164796,-124.23167693516933
The Coach House Restaurant,BBQ Joint,4bf58dd8d48988d1df931735,4bfeddc0daf9c9b6c761f9ef,43.361996135730095,-124.19297714890841
Fishermen's Grotto,Seafood Restaurant,4bf58dd8d48988d1ce941735,4ac69808f964a52053b520e3,43.330372,-124.371923
High Tide Cafe,Seafood Restaurant,4bf58dd8d48988d1ce941735,4c9fb83c46978cfa5c97ad7f,43.338890075683594,-124.3252182006836
Ciccarelli's,American Restaurant,4bf58dd8d48988d14e941735,4b9a81c0f964a520d8bb35e3,43.40578176462276,-124.22426479389631
Captain's Choice Fish House,Seafood Restaurant,4bf58dd8d48988d1ce941735,4bd35e86462cb713534ade07,43.40705975120115,-124.22973311375141
Sharkbites,Seafood Restaurant,4bf58dd8d48988d1ce941735,4bbe6e434e7bd13a0bff9a7f,43.36663961216854,-124.21299871700421
Coney Station #1,Pub,4bf58dd8d48988d11b941735,4bea32aa6295c9b61b3a8608,43.366095,-124.21356899999999
Cap'n Jack's Crab Shack,Seafood Restaurant,4bf58dd8d48988d1ce941735,58e2e6f60a3d5462e2f6edca,43.338991,-124.32549
Fishermen's Seafood Market,Seafood Restaurant,4bf58dd8d48988d1ce941735,4c4386d9f0bdd13a845dc8cc,43.36729561484157,-124.21196758938795
Chuck's Seafood,Seafood Restaurant,4bf58dd8d48988d1ce941735,4eb2cb3e722ead5ebf600d00,43.33964564671997,-124.32476696197051
7-Eleven,Convenience Store,4d954b0ea243a5684a65b473,4c264d3a5c5ca593a7e945fe,43.3913322213535,-124.268756657838
Fred Meyer Fuel Center,Snack Place,4bf58dd8d48988d1c7941735,525b3bbb11d2ad1a754ec509,43.3568635,-124.213748
Abby's Legendary Pizza,Pizza Place,4bf58dd8d48988d1ca941735,4c31654166e40f47bb08c58b,43.358199,-124.212508
Monkey Business Food To Go,Snack Place,4bf58dd8d48988d1c7941735,52153144498ec1df6b4092de,43.34524,-124.326156
Lucky Star,Chinese Restaurant,4bf58dd8d48988d145941735,4bf58ae9bfeac928e9ac9236,43.39089924964435,-124.22034160966238
Momiji Japanese Restaurant and Sushi Bar,Japanese Restaurant,4bf58dd8d48988d111941735,4ce3306502ea236a17985360,43.393617599298985,-124.2198304851426
The Grounds Cafe and Deli,Café,4bf58dd8d48988d16d941735,4bca8544937ca593f42aa892,43.40826785884644,-124.22366117673629
Bon Appetit Bistro,Deli / Bodega,4bf58dd8d48988d146941735,4eb441e6cc2143e827784b4a,43.36910627284392,-124.21282228323
Hilltop House,Steakhouse,4bf58dd8d48988d1cc941735,4b5ffaaef964a52052d229e3,43.43890725236044,-124.21808688143783
Sizzler,Steakhouse,4bf58dd8d48988d1cc941735,4c5f0118bfa595215e9593ff,43.39178792846808,-124.2395887714877
Sizzler,Steakhouse,4bf58dd8d48988d1cc941735,4bcbca4968f976b074cf6183,43.410842,-124.253093
Rodeo Steakhouse,Steakhouse,4bf58dd8d48988d1cc941735,4efff28f775bec6b44316efc,43.374002021394496,-124.21299299559176
Buffalo Bill's Steakhouse,Steakhouse,4bf58dd8d48988d1cc941735,4f32609a19836c91c7d1d384,43.36616134643555,-124.21289825439453
Sozo's Tea & Coffee House,Tea Room,4bf58dd8d48988d1dc931735,4bf54d0ee5eba59358942090,43.40720748901367,-124.22459411621094
Front Street Provisoners,Vegetarian / Vegan Restaurant,4bf58dd8d48988d1d3941735,5c5ba711da2e00002c933eae,43.372276306152344,-124.21174621582031
The Tin Thistle,Vegetarian / Vegan Restaurant,4bf58dd8d48988d1d3941735,55a40679498ea4a9ca2d2349,43.365657806396484,-124.21565246582031
Wildflour Cafe & Catering,Vegetarian / Vegan Restaurant,4bf58dd8d48988d1d3941735,5d1579573221cb0023a396ab,43.406899,-124.223898
Humboldt Club,Bar,4bf58dd8d48988d116941735,4be34229b02ec9b6f0044fc0,43.396597043169855,-124.22403297500018
