name,category,category_id,venue_id,lat,long
Pat's Kozy Kitchen,American Restaurant,4bf58dd8d48988d14e941735,54b2d758498ecfe95383b75c,43.390670560532904,-123.31382181310914
Coco's Café,American Restaurant,4bf58dd8d48988d14e941735,599e14170a464d05a6414e88,43.422299,-123.29885
Buonauro's Pasta House,New American Restaurant,4bf58dd8d48988d157941735,4de6950aae60efaffb5b846b,43.2073974609375,-123.34712219238281
Kowloon Restaurant,Chinese Restaurant,4bf58dd8d48988d145941735,4be4c005cf200f472777123c,43.21346403028688,-123.31983142285961
Chen's,Chinese Restaurant,4bf58dd8d48988d145941735,57fbea13498e19f1493d7d9b,43.218792,-123.34415
Yummy House,Chinese Restaurant,4bf58dd8d48988d145941735,5918fd5ba30619669e3279dd,43.387054443359375,-123.32917022705078
China Palace,Chinese Restaurant,4bf58dd8d48988d145941735,4de0062d18380dc4dd24b386,43.219909274269945,-123.34524620787612
Rumors,Chinese Restaurant,4bf58dd8d48988d145941735,4b68d127f964a520738e2be3,43.21344383,-123.3198595046997
Nansing Gardens,Chinese Restaurant,4bf58dd8d48988d145941735,530aa844498e86b6dd77adc4,43.01792685456365,-123.29439880161733
hong kong restaurant,Chinese Restaurant,4bf58dd8d48988d145941735,4e97a668b63418b7e619d9b7,43.387054443359375,-123.32917022705078
Crown Teriyaki Plus,Japanese Restaurant,4bf58dd8d48988d111941735,4f4499d019836ed001953028,43.240020751953125,-123.36302947998047
China Buffet,Chinese Restaurant,4bf58dd8d48988d145941735,4c26b84cc11dc9b67a8e2924,43.225128000000005,-123.34843899999998
Jasmine's Catering & Event Center,Korean Restaurant,4bf58dd8d48988d113941735,4c391a571a38ef3baecb9221,43.20656558333334,-123.34482149
Mongril,Mongolian Restaurant,4eb1d5724b900d56c88a45fe,5aea9b4e89ad4600241a0d70,43.196441,-123.352063
Seven 7 Thai Restaurant,Thai Restaurant,4bf58dd8d48988d149941735,595af6819cadd9280ec83d40,43.227940000000004,-123.36373200000001
Aroy Authentic Thai Cuisine,Thai Restaurant,4bf58dd8d48988d149941735,5b9f07b6898bdc00391fe3dd,43.22496032714844,-123.34895324707031
Hong Kong,Chinese Restaurant,4bf58dd8d48988d145941735,4ba98df9f964a5202f2e3ae3,43.38715341764704,-123.32916796455642
Charley's BBQ,BBQ Joint,4bf58dd8d48988d1df931735,4c23da50b7b8a593f4883be8,43.214092,-123.35815066666666
Donut Hole,Bagel Shop,4bf58dd8d48988d179941735,4f3259d319836c91c7cf2b7f,43.202239990234375,-123.35144805908203
Sweet Touch Designer Dessert Tables & Event Planning,Bakery,4bf58dd8d48988d16a941735,56d87556498e0cb2153ff5da,43.16247,-123.37789
Bronx Bagels,Bagel Shop,4bf58dd8d48988d179941735,4c07ffdb5ac29c7445c302a8,43.387113732816005,-123.33553170721012
White Horse Coffee and Tea Co.,American Restaurant,4bf58dd8d48988d14e941735,4c5999cef346c9280cf04cca,43.39215157079113,-123.2994159
Shazaam's Eatery,BBQ Joint,4bf58dd8d48988d1df931735,4f32131319833175d60dfb2b,43.21391677856445,-123.3801040649414
Wagon Wheel,American Restaurant,4bf58dd8d48988d14e941735,4c9f7aa9542b224b70abfd9f,43.22633933403901,-123.35582391979192
Java Run,Breakfast Spot,4bf58dd8d48988d143941735,4eac1470e5fa45480e562943,43.227603912353516,-123.35002136230469
Double T Saloon,American Restaurant,4bf58dd8d48988d14e941735,4f53d46ae4b07e4c6433c632,43.232797999999995,-123.373745
Bubble Tea,Bubble Tea Shop,52e81612bcbc57f1066b7a0c,5b71d698a2c00b002cf6f4da,43.21353,-123.3593
The Jersey Lilly,Bar,4bf58dd8d48988d116941735,4c0acf43340720a193248793,43.22718281181029,-123.35104187683798
Pete's Drive In,Burger Joint,4bf58dd8d48988d16c941735,4bca287c68f976b053cc5e83,43.214478,-123.363685
Tolly's,American Restaurant,4bf58dd8d48988d14e941735,4b995fdaf964a520b17635e3,43.422046,-123.298923
Firehouse Fudge Company,Café,4bf58dd8d48988d16d941735,5be3c9e2f05ca8002da2b173,43.22693,-123.35728
MegaByte Computer Services & Cyber Cafe,Electronics Store,4bf58dd8d48988d122951735,56627209498ebe13aeb3b5d1,43.21456,-123.35965
Cucina Mia Cafe,Pizza Place,4bf58dd8d48988d1ca941735,4f32348e19836c91c7c0871b,43.225128000000005,-123.34843899999998
Fusion French Quarter,Cajun / Creole Restaurant,4bf58dd8d48988d17a941735,56f1aeec498ea02fac6a6419,43.390105,-123.313823
Little Jeans,American Restaurant,4bf58dd8d48988d14e941735,542c50f1498e76106c2ac6da,43.225128000000005,-123.34843899999998
Java Run,Café,4bf58dd8d48988d16d941735,4d122df6058fa35db700259f,43.21432876586914,-123.36222839355469
Jackson Street Coffee,Café,4bf58dd8d48988d16d941735,5676e845498ed3ede5ad1fdb,43.207378,-123.345153
Detour Deli,Café,4bf58dd8d48988d16d941735,4de90d6dae60293318ffebb9,43.20680618286133,-123.34754943847656
Between the Buns,Deli / Bodega,4bf58dd8d48988d146941735,4bb0f83df964a520dc6e3ce3,43.2276105,-123.3529949
Smitty's Food Mart & Deli,Deli / Bodega,4bf58dd8d48988d146941735,4bf42b9f706e20a17d06a998,43.38666395260282,-123.33480743661087
Dianne's Deli & Coffee Shop,Deli / Bodega,4bf58dd8d48988d146941735,4de7ecd8d4c0086a95168167,43.21284866333008,-123.33503723144531
Renard's Deli,Deli / Bodega,4bf58dd8d48988d146941735,4f32a5e719836c91c7ec3367,43.236546999999995,-123.37295300000001
Walmart Bakery,Deli / Bodega,4bf58dd8d48988d146941735,5a9ef94de07550543f5d1505,43.235375,-123.368758
Franz Bakery Outlet,Bakery,4bf58dd8d48988d16a941735,4caf56efdd619c745bd9e290,43.23640946,-123.35408258
Level Up Frozen Yogurt,Frozen Yogurt Shop,512e7cae91d4cbb4e5efe0af,5451576a498e62026eeb8285,43.223832,-123.346591
Umpqua Dairy,Gourmet Shop,4bf58dd8d48988d1f5941735,4de02ee622713271e2ade844,43.203702,-123.35382
Tommys all american burgers,Ice Cream Shop,4bf58dd8d48988d1c9941735,56a546bf498ece5cac70b98c,43.023949,-123.288104
Winston Drive In,Diner,4bf58dd8d48988d147941735,4e0bbe2cae606c2b4e175c70,43.122914,-123.41233700000001
Henry's Donuts,Donut Shop,4bf58dd8d48988d148941735,51290844e4b01d5805502a62,43.387171,-123.335982
Roseburg Donut & Bagel Factory,Donut Shop,4bf58dd8d48988d148941735,54073f06498ed60291880209,43.22899627685547,-123.36734771728516
Henry's Donuts,Bakery,4bf58dd8d48988d16a941735,4c41d888d7fad13a291f08da,43.227748999999996,-123.352643
Roseburg Donut and Bagel Factory,Donut Shop,4bf58dd8d48988d148941735,52d8026a498e0cee9f6745d2,43.22891645807438,-123.36710332054804
Creekside,American Restaurant,4bf58dd8d48988d14e941735,4c2cb583d1a10f4739d8f964,43.388427734375,-123.3139877319336
Granny's mini hut,Food Truck,4bf58dd8d48988d1cb941735,55d22c88498e232f3e4318b4,43.22427628285639,-123.35136342652702
Smokehouse And Grill,Food Truck,4bf58dd8d48988d1cb941735,4f15fad8e4b0aabf1c485711,43.22629905176441,-123.36086936215337
The Bun Stuffer,Food Truck,4bf58dd8d48988d1cb941735,572ba665498e78e2eb33ae9d,43.21061881780895,-123.3478649418741
Max's Tacos,Food Truck,4bf58dd8d48988d1cb941735,5bd21339d0a149002c6ffd6f,43.210518,-123.34821
Mi Gusto,Food Truck,4bf58dd8d48988d1cb941735,556a2f34498e12c9d8f55637,43.385012428588595,-123.3338007825325
McMenamins Roseburg Station Pub & Brewery,Pub,4bf58dd8d48988d11b941735,4bc4f5866cccd13a3685ff8b,43.20928819692237,-123.34827156837294
Munchies,American Restaurant,4bf58dd8d48988d14e941735,4bef146cf2712d7f2147fbd8,43.30750606389758,-123.0778355836307
KFC,Fried Chicken Joint,4d4ae6fc7a7b7dea34424761,4c2a9137197e9521c17b628d,43.22631771939739,-123.35718921288014
Asia Garden & Restaurant,Restaurant,4bf58dd8d48988d1c4941735,570caeb8498e256f48ae7adc,43.212443,-123.326604
Aunt B’s Cafe,Café,4bf58dd8d48988d16d941735,5d961f660b7c5b0008a16c58,43.213294982910156,-123.3720932006836
Shanti's Indian Cuisine,Indian Restaurant,4bf58dd8d48988d10f941735,4e7d33ce7ee6680c28d2f20a,43.230353,-123.363817
El Dorado,Mexican Restaurant,4bf58dd8d48988d1c1941735,54939c33498e34ab3439c50c,43.21449661254883,-123.34162902832031
Muchas Gracias,Mexican Restaurant,4bf58dd8d48988d1c1941735,4c2e96c67cc0c9b6ee64ea9a,43.12151529,-123.41344177722931
Taco Fiesta,Mexican Restaurant,4bf58dd8d48988d1c1941735,5085c0cee4b066174b4f29c0,43.214537,-123.341579
Burrito Vaquero Mexican Restaurant,Mexican Restaurant,4bf58dd8d48988d1c1941735,56974eb4498e77af2fe105d3,43.228716,-123.366564
Taco Del Mar,Mexican Restaurant,4bf58dd8d48988d1c1941735,4cd8628f2a805481b2c49b2c,43.214577733333336,-123.341602
Marathi Logo,Mexican Restaurant,4bf58dd8d48988d1c1941735,4e260b817d8b5ea7247033ea,43.207595,-123.34470900000001
Tino's Tacos,Food Truck,4bf58dd8d48988d1cb941735,4e934cefd22d95ed0da54e6f,43.2284140667554,-123.36497108682147
Si Casa Flores,Mexican Restaurant,4bf58dd8d48988d1c1941735,4b9c491bf964a520f95b36e3,43.230353,-123.363817
Tacos La Rana,Taco Place,4bf58dd8d48988d151941735,5d7160efa19439000805407b,43.209705,-123.348404
Taco Maker,Taco Place,4bf58dd8d48988d151941735,4e4dededbd4101d0d79e707e,43.239292,-123.36181200000001
Wtfalafel,Lebanese Restaurant,58daa1558bbb0b01f18ec1cd,5c3534696f0aa2002c025e97,43.227374,-123.352435
Old Soul Pizza,Pizza Place,4bf58dd8d48988d1ca941735,535314fe498ef17c75c4fc93,43.209059,-123.343042
Abby's Legendary Pizza,Pizza Place,4bf58dd8d48988d1ca941735,4c71e13357b6a143ee52c4cc,43.212542,-123.322117
Dakota Street Pizza,Pizza Place,4bf58dd8d48988d1ca941735,4c71deec9e706dcb499f4962,43.386998107372904,-123.34319509239499
Domino's Pizza,Pizza Place,4bf58dd8d48988d1ca941735,4d41f0e0aed776eb03b56997,43.38839933370569,-123.32427704517752
Roundtable,Pizza Place,4bf58dd8d48988d1ca941735,4e4c1d6e149563bcf2fd3d6d,43.232535999999996,-123.37287099999999
Papa Murphy's | Take 'N' Bake Pizza,Pizza Place,4bf58dd8d48988d1ca941735,4d38a19f76d1a35dd9bcff8d,43.38726263340971,-123.33569058595397
Papa Murphy's,Pizza Place,4bf58dd8d48988d1ca941735,4f3259ff19836c91c7cf3dab,43.386737,-123.33219
Loggers Pizza,Pizza Place,4bf58dd8d48988d1ca941735,4cd9eaa3847da1cdbb73029a,43.225444,-123.348545
McDonald's,Restaurant,4bf58dd8d48988d1c4941735,4b73510ff964a52035a82de3,43.386783816723444,-123.33512999117374
Abby's Legendary Pizza,Pizza Place,4bf58dd8d48988d1ca941735,4c0ab2f67e3fc928b618f482,43.387755,-123.32858200000001
Si Casa Flores,Mexican Restaurant,4bf58dd8d48988d1c1941735,4c240168c11dc9b6aad72424,43.388293,-123.341251
Nellie’s Deli & Tap House,Deli / Bodega,4bf58dd8d48988d146941735,5b4cfc60b8fd9d002c2e2b37,43.39229965209961,-123.30377960205078
Apple Peddler,American Restaurant,4bf58dd8d48988d14e941735,4bc9f29b3740b7130a9e5f65,43.384885,-123.336786
Sol De Sutherlin,Mexican Restaurant,4bf58dd8d48988d1c1941735,518c66f0498e7c40a2483d30,43.388214111328125,-123.32644653320312
A.M. Market,Deli / Bodega,4bf58dd8d48988d146941735,4cfaf084dccef04d7d7db89c,43.391313178230796,-123.30809749537829
Pedotti's Italian Restaurant,Italian Restaurant,4bf58dd8d48988d110941735,4c75d0b2c219224be0cba328,43.38607772882702,-123.33360118027267
Domino's Pizza,Restaurant,4bf58dd8d48988d1c4941735,4c201ca4fec3b71333ccbec6,43.21362907109783,-123.35818516641211
Little Suzie' Diner,Diner,4bf58dd8d48988d147941735,54c55635498ea958172706cf,43.00408504677197,-123.3025317307842
Pizza Palace,Pizza Place,4bf58dd8d48988d1ca941735,4cca297c26fea1cd35f52b4d,43.004080019963844,-123.30336428178023
Abby's Legendary Pizza,Pizza Place,4bf58dd8d48988d1ca941735,4c883e247223b1f7a34c2aa8,43.017401,-123.294926
Figaro's Pizza,Pizza Place,4bf58dd8d48988d1ca941735,4e4d649dbd413c4cc670b90a,43.015048,-123.29182
Ed&Mo's Diner,American Restaurant,4bf58dd8d48988d14e941735,517ed98ee4b0eef58848fe81,43.024658,-123.288367
Johnny's Drive In,Burger Joint,4bf58dd8d48988d16c941735,4c54d5eff5f3d13a9fd0c0fa,43.12057262513284,-123.41774560160036
Mars Garden Restaurant,Chinese Restaurant,4bf58dd8d48988d145941735,4c6344ebde1b2d7fa37de470,43.118981508938475,-123.41437735710225
Harvest Foods,Restaurant,4bf58dd8d48988d1c4941735,4cd206fa9d87224b356a5e3b,43.11987245,-123.42143245
Hello Thai Cuisine,Restaurant,4bf58dd8d48988d1c4941735,4dd1d153fa767fb70785ad53,43.11940713886995,-123.4144781813824
Figaro's Pizza,Pizza Place,4bf58dd8d48988d1ca941735,4ea0ca25b6347b99671c9aa6,43.12485663620121,-123.41213092292682
Wildlife Safari Cafe,Café,4bf58dd8d48988d16d941735,4f0211e7e300fdc04af9420c,43.14013867509731,-123.42800617218018
The Happy Donut,Donut Shop,4bf58dd8d48988d148941735,4f32b3bae4b09c40b528b0f6,43.01784133911133,-123.29440307617188
Los Dos Amigos,Mexican Restaurant,4bf58dd8d48988d1c1941735,4beb65d26295c9b6b4c18708,43.20919099141818,-123.34329707459956
Carlos Restaurante,Mexican Restaurant,4bf58dd8d48988d1c1941735,4bd5e75f7b1876b05c988b86,43.11496748765747,-123.41496132493405
Dino's Ristorante Italiano,Italian Restaurant,4bf58dd8d48988d110941735,4c4b940b46240f47d7897ff3,43.210658,-123.34316299999999
KFC,Restaurant,4bf58dd8d48988d1c4941735,4f4535cc19836ed001994d5d,43.214466389570454,-123.36263151595591
McDonald's,Restaurant,4bf58dd8d48988d1c4941735,58ec37a33f5a5c2f64278cfe,43.1455456,-123.3800131
Taco Bell,Mexican Restaurant,4bf58dd8d48988d1c1941735,595ee5e9112c6c7093d3eb1f,43.149414,-123.37205
Papa Murphy's | Take 'N' Bake Pizza,Restaurant,4bf58dd8d48988d1c4941735,4cafc1669b34199c4360b763,43.14648802208121,-123.38019050053923
A&W,American Restaurant,4bf58dd8d48988d14e941735,4f93113ae4b0e8f46561320e,43.1451370604428,-123.3810303862295
Abby's Legendary Pizza,Pizza Place,4bf58dd8d48988d1ca941735,4e4d61c6bd413c4cc670a260,43.121645,-123.413867
Sushi And Roll,Sushi Restaurant,4bf58dd8d48988d1d2941735,4e1a5fe145dd120c1221a3fe,43.14630869,-123.38066256
The Parrott House,New American Restaurant,4bf58dd8d48988d157941735,577434c8498eb57d88276c1f,43.198643,-123.352656
Loggers Tap House,Pizza Place,4bf58dd8d48988d1ca941735,51feae42498e0c5e767e11c0,43.23291243076613,-123.37279875807796
Del Rey Cafe,Diner,4bf58dd8d48988d147941735,4c4c7152f7cc1b8db0ae5441,43.27981,-123.35426000000001
Elmer’s Restaurant,Breakfast Spot,4bf58dd8d48988d143941735,4bcbaded937ca5932121aa92,43.22735729824811,-123.35987462431603
Red Robin Gourmet Burgers and Brews,Restaurant,4bf58dd8d48988d1c4941735,4b775f11f964a520e1952ee3,43.23591995,-123.3727362
Bangkok West,Thai Restaurant,4bf58dd8d48988d149941735,4d802d0670d18cfa0c1e9894,43.21347445994127,-123.38115679108367
Taco Time,Taco Place,4bf58dd8d48988d151941735,4baa746df964a520bc6b3ae3,43.213667,-123.35872
Casey's Family Restaurant,Restaurant,4bf58dd8d48988d1c4941735,4bfab99d4a67c928c5a728cf,43.227247542590156,-123.35793956925767
Blac-N-Bleu Bistro,American Restaurant,4bf58dd8d48988d14e941735,522bd54e11d22c9b4efeb66e,43.23545210187491,-123.37962881134015
Burrito Vaquero,Mexican Restaurant,4bf58dd8d48988d1c1941735,4e7f9f7655037b62aff53d69,43.2287113513838,-123.36659193115432
Bagel Tree Cafe and Bakeshop,Bagel Shop,4bf58dd8d48988d179941735,4bf5ba995e800f477014e6d4,43.21285037982831,-123.3414121288266
Panda Express,Chinese Restaurant,4bf58dd8d48988d145941735,4e595f3b45dd705592967202,43.2306736495442,-123.37080168135984
Abby's Legendary Pizza,Pizza Place,4bf58dd8d48988d1ca941735,4cf455abc9af6dcb067fab7f,43.230183,-123.350136
Brix 527,Café,4bf58dd8d48988d16d941735,4ba0ed43f964a520aa8737e3,43.20943458120973,-123.34359873134193
Los Dos Amigos,Mexican Restaurant,4bf58dd8d48988d1c1941735,4c3a80b4ae2da593097004c6,43.22648980053879,-123.3494169724021
Denny's,Breakfast Spot,4bf58dd8d48988d143941735,4bf5f5015efe2d7f19736634,43.21301909532696,-123.3524288982153
Splitz Family Grill,American Restaurant,4bf58dd8d48988d14e941735,4bc94c81b6c49c74a0568e91,43.21365245662246,-123.3267045021057
True Kitchen + Bar,Restaurant,4bf58dd8d48988d1c4941735,565539d4498ec7cc081c20f1,43.208023,-123.34380700000001
Romulito's,Mexican Restaurant,4bf58dd8d48988d1c1941735,4c0c3a1f7e3fc9288491f682,43.227748999999996,-123.352643
Gilberto's Mexican Restaurant,Mexican Restaurant,4bf58dd8d48988d1c1941735,4c7f0c39fb13a1cdffb69fa4,43.22597,-123.34804
Little Caesars Pizza,Pizza Place,4bf58dd8d48988d1ca941735,4bff00fd68c7a593f4094044,43.223476,-123.34666899999999
Papa Murphy's,Pizza Place,4bf58dd8d48988d1ca941735,4bb3e066737d76b015d13a7c,43.2279429,-123.3535923
El Mariachi Loco,Mexican Restaurant,4bf58dd8d48988d1c1941735,4c956e0582b56dcb1712d9aa,43.20803,-123.34431
Salud Restaurant & Brewery,Latin American Restaurant,4bf58dd8d48988d1be941735,5380f87f498e7fd31bcfe894,43.20941512904612,-123.34348017419804
Lee's Chinese Restaurant,Chinese Restaurant,4bf58dd8d48988d145941735,4c0c63a32b899c74f95bf158,43.233578,-123.35036799999999
Ami Japanese Restarant,Japanese Restaurant,4bf58dd8d48988d111941735,4c2d0b167557952164585d83,43.208861849657104,-123.34684869091416
Alexander's Greek Cuisine,Greek Restaurant,4bf58dd8d48988d10e941735,4c01bfa9716bc9b62471bc55,43.208244,-123.34423000000001
Asia Gardens,Asian Restaurant,4bf58dd8d48988d142941735,4c72ed244bc4236ace9acc7a,43.212717448360905,-123.3270848258581
SUBWAY,Sandwich Place,4bf58dd8d48988d1c5941735,4bae601ef964a520fba93be3,43.14475,-123.38265700000001
Subway,Sandwich Place,4bf58dd8d48988d1c5941735,4c7aaaaa97028cfa18dcdefe,43.3867597247527,-123.34239900033185
Subway,Sandwich Place,4bf58dd8d48988d1c5941735,4cebe212948f224bec29035e,43.213115100555335,-123.3338180484385
Pita Pit (Roseburg),Sandwich Place,4bf58dd8d48988d1c5941735,53498aa0498ed1f57cedcce7,43.230659,-123.37051699999999
Subway,Sandwich Place,4bf58dd8d48988d1c5941735,4baa6624f964a5206e663ae3,43.21413872024504,-123.36029613102988
Jimmy John's,Sandwich Place,4bf58dd8d48988d1c5941735,5581ba5e498e928c15799ccb,43.240095000000004,-123.363105
Bob's Deli,Sandwich Place,4bf58dd8d48988d1c5941735,4db5cc6bfa8c350241026d5c,43.22382,-123.346498
Subway,Sandwich Place,4bf58dd8d48988d1c5941735,4c82dd83d92ea0932b3f4f72,43.22568080875216,-123.3487429522138
Subway,Sandwich Place,4bf58dd8d48988d1c5941735,4c2e4f41a0ced13ae09c0e6e,43.236229,-123.371878
SUBWAY,Sandwich Place,4bf58dd8d48988d1c5941735,5056483ae4b096ad9a75bb9e,43.261348,-123.35108400000001
Subway,Sandwich Place,4bf58dd8d48988d1c5941735,4c588c01f346c928d27e4aca,43.121144729797436,-123.4176480723811
Subway On The Parkway,Sandwich Place,4bf58dd8d48988d1c5941735,4f325a2f19836c91c7cf51dd,43.23611068725586,-123.37146759033203
SUBWAY,Sandwich Place,4bf58dd8d48988d1c5941735,4db85777f7b15ca52ce8414c,43.015832,-123.292126
Subway,Sandwich Place,4bf58dd8d48988d1c5941735,4e4de5c3bd41b76bef950422,43.424983,-123.29916
Subway,Sandwich Place,4bf58dd8d48988d1c5941735,5e14294a37b12d00084d55f2,43.23530585185187,-123.36869728461056
Subway Wal-Mart,Sandwich Place,4bf58dd8d48988d1c5941735,59246f17bcbf7a2c9bccff66,43.23246,-123.37064
Subway,Sandwich Place,4bf58dd8d48988d1c5941735,4f322e2d19836c91c7be0e1a,43.38599395751953,-123.33544158935547
Big Town Hero,Sandwich Place,4bf58dd8d48988d1c5941735,4dfbdd4bae6033b2a472ae7c,43.240095000000004,-123.363105
Skippers - Seafood & Chowder,Seafood Restaurant,4bf58dd8d48988d1ce941735,4de801bacc3f0a106834006f,43.234676220139946,-123.37328529186759
spippers In The Mall,Seafood Restaurant,4bf58dd8d48988d1ce941735,5054f008e4b0c6835faedaab,43.23104476928711,-123.36163330078125
Smokin' Friday BBQ,BBQ Joint,4bf58dd8d48988d1df931735,4c55c51230f92d7f8ba1b2bc,43.226994059235835,-123.3509266598303
Fred Meyer Fuel Center,Snack Place,4bf58dd8d48988d1c7941735,591c5ab765cdf82e0646b283,43.2282576,-123.3642743
Log Yard Lunch Room,Snack Place,4bf58dd8d48988d1c7941735,4de5388a1f6e3190cd517952,43.092945,-123.422538
Fisher's Flowers & Fine Art,Art Gallery,4bf58dd8d48988d1e2931735,562021a4498eec47082034c9,43.21327489999999,-123.3609268
Chi's,Chinese Restaurant,4bf58dd8d48988d145941735,4babcd58f964a520d4ca3ae3,43.22149774137127,-123.34551087183112
Reustle - Prayer Rock Vineyards,Winery,4bf58dd8d48988d14b941735,4de41589814df7ebdc1eb8f3,43.350608825683594,-123.43791198730469
Sizzler,Steakhouse,4bf58dd8d48988d1cc941735,4cf7f9919d11b1f7f1e9c8ed,43.231063456359195,-123.37119040304846
Rodeo Steak House,Steakhouse,4bf58dd8d48988d1cc941735,4c1ae28feac020a18c1844c2,43.2315822964194,-123.37181591216586
Sandy's Diner & Steakhouse,Steakhouse,4bf58dd8d48988d1cc941735,5154e4dfe4b0859c9f9a79fa,43.15022627720297,-123.37202755777132
Shari's Cafe and Pies,American Restaurant,4bf58dd8d48988d14e941735,4ba63f30f964a520d53e39e3,43.247344,-123.357628
Dairy Queen,Ice Cream Shop,4bf58dd8d48988d1c9941735,4dfa654eb0fb0401c7f83205,43.386897780056195,-123.33985998311618
Dutch Bros Coffee,Tea Room,4bf58dd8d48988d1dc931735,5bf42f5e2db4a9002c3b4914,43.14719313933347,-123.3806731821681
Love's Travel Stop,Truck Stop,57558b36e4b065ecebd306dd,4b779072f964a520c1a12ee3,43.1507559,-123.3668592
Lighthouse  Center Bakery Cafe,Vegetarian / Vegan Restaurant,4bf58dd8d48988d1d3941735,4c1fc260fec3b71368bdbec6,43.367206,-123.45491799999999
Applebee's Grill + Bar,American Restaurant,4bf58dd8d48988d14e941735,4b8c66e5f964a520f6ce32e3,43.24229111,-123.3612143
Round Table Pizza,Wings Joint,4bf58dd8d48988d14c941735,4c539859728920a1a52c5781,43.232612027348495,-123.3729768058443
