name,category,category_id,venue_id,lat,long
Ambo Ethiopian Cuisine,Ethiopian Restaurant,4bf58dd8d48988d10a941735,545eaf4b498e1f6bee6e65c5,48.744251,-122.482955
The Bistro at Steakhouse 9,American Restaurant,4bf58dd8d48988d14e941735,53e571e6498eaa1265212b58,48.960318,-122.450375
Bow Edison,American Restaurant,4bf58dd8d48988d14e941735,57f081efcd10d8d75f164edf,48.565369,-122.42193
Arby's,American Restaurant,4bf58dd8d48988d14e941735,4d5ad41f916dbfc9fe5160b9,48.8001121462743,-122.485415160672
Park Bowl Restaurant & Arcade,American Restaurant,4bf58dd8d48988d14e941735,4b9eac36f964a52073f836e3,48.792558701440164,-122.48823315340191
Main Street Bar & Grill,American Restaurant,4bf58dd8d48988d14e941735,4b777f94f964a5202b9e2ee3,48.846148756401,-122.59041897821227
NYP Bar and Grill,American Restaurant,4bf58dd8d48988d14e941735,567275bc498ea55884aac8f9,48.744222,-122.482859
Red Robin,American Restaurant,4bf58dd8d48988d14e941735,51a03db1498ed4463f6b5832,48.80088411824387,-122.48679703375774
northwater,American Restaurant,4bf58dd8d48988d14e941735,5a9631f0b1ec131c29132435,48.79615020751953,-122.52945709228516
Lovitt,American Restaurant,4bf58dd8d48988d14e941735,58f17705ee628b62e178877c,48.720001220703125,-122.50263214111328
The Loft At Latitude Forty Eight Five,New American Restaurant,4bf58dd8d48988d157941735,51f46dd2498e02711dfd7ab6,48.75729212088513,-122.49573625795655
Aslan Brewing Company,New American Restaurant,4bf58dd8d48988d157941735,5219da0f11d21bc0816f09c9,48.74847888236762,-122.47459657949913
Three Flavors Kitchen,New American Restaurant,4bf58dd8d48988d157941735,56196edb498e45e306854c40,48.92630595445106,-122.32218503952026
Man Pies,New American Restaurant,4bf58dd8d48988d157941735,4baba4ddf964a5203dbc3ae3,48.74861447530627,-122.478764780508
City Grill,New American Restaurant,4bf58dd8d48988d157941735,4ef2ae279a52fadb33d08a40,48.750511169433594,-122.47863006591797
TOAKOM,Asian Restaurant,4bf58dd8d48988d142941735,58d8563bb50d5211e0435311,48.771896,-122.45886
Oishii Teriyaki,Asian Restaurant,4bf58dd8d48988d142941735,4bd5f1b8637ba5930956f770,48.729512,-122.474658
Oriental Grocery And Bakery,Asian Restaurant,4bf58dd8d48988d142941735,4d3b84d544f5a0938b63c4bb,48.763911,-122.48636
Panasia,Asian Restaurant,4bf58dd8d48988d142941735,4c44a9c636d6a59371cd6aa8,48.81728455555078,-122.62550217774526
China Palace,Chinese Restaurant,4bf58dd8d48988d145941735,4bbbecfae45295211d6a55a4,48.8023568,-122.48550301666667
Panda Express,Chinese Restaurant,4bf58dd8d48988d145941735,519844a0498e9ad3014909ac,48.78518903447962,-122.48908020105904
QQ Li's,Chinese Restaurant,4bf58dd8d48988d145941735,4bcb5d20b6c49c74650c9291,48.729387132098964,-122.47463558503733
Lucky Panda,Chinese Restaurant,4bf58dd8d48988d145941735,4b95d2a1f964a52099b434e3,48.760774,-122.465447
Fresh Grill,Chinese Restaurant,4bf58dd8d48988d145941735,5b3e7d2004d1ae002c65a9b4,48.785484,-122.489876
Panda Express,Chinese Restaurant,4bf58dd8d48988d145941735,5060f018e4b060578557e387,48.737897,-122.48409099999999
The Oriento,Chinese Restaurant,4bf58dd8d48988d145941735,4c0d8ed1c700c9b605a3a2dd,48.763343811035156,-122.48585510253906
Lynden Mandarin,Cantonese Restaurant,52af3a7c3cf9994f4e043bed,4c3b7902def90f472201fe2d,48.944203,-122.451494
Hana Teriyaki,Japanese Restaurant,4bf58dd8d48988d111941735,4b6c8d1df964a5207f422ce3,48.753875,-122.485928
The Teriyaki Bar,Japanese Restaurant,4bf58dd8d48988d111941735,4c6721a1b80abe9aca3bcfe5,48.75007920828785,-122.4797343930921
Fujisan Sushi,Japanese Restaurant,4bf58dd8d48988d111941735,5c8e95d58fb09e002cd0307f,48.720073,-122.501902
Teriyaki House,Japanese Restaurant,4bf58dd8d48988d111941735,4bda01673904a5935da1449e,48.796265000000005,-122.486675
Express Japan,Japanese Restaurant,4bf58dd8d48988d111941735,5623ffd3498ef11de92c25f4,48.785113,-122.489219
Kojo of Japan,Japanese Restaurant,4bf58dd8d48988d111941735,4c5f1b1812e5c92861401c4c,48.785994,-122.49089
Hokkai Ramen & Sushi,Sushi Restaurant,4bf58dd8d48988d1d2941735,5b620a5b7d849700399042ec,48.796265000000005,-122.486675
Muto Ramen,Sushi Restaurant,4bf58dd8d48988d1d2941735,59c71c638134883ec2b2a4fd,48.748494,-122.480216
Oishii Teriyaki & Rolls,Sushi Restaurant,4bf58dd8d48988d1d2941735,4b7b4189f964a520ea5a2fe3,48.790186,-122.496673
Little Tokyo,Sushi Restaurant,4bf58dd8d48988d1d2941735,4cfaf586ee9cb60c56948dad,48.76955903778519,-122.44383256503437
Kyoto Japanese Steakhouse,Japanese Restaurant,4bf58dd8d48988d111941735,4b67a72af964a52098592be3,48.7362446600816,-122.47065190384689
Maki Zushi,Sushi Restaurant,4bf58dd8d48988d1d2941735,4daf955a0cb6ead7fdd2ae37,48.75202941894531,-122.474609375
Lakeway Teriyaki,Sushi Restaurant,4bf58dd8d48988d1d2941735,4c5b4e64d25320a11750c07a,48.743821193285655,-122.4638441393564
Nami Asian Bistro,Sushi Restaurant,4bf58dd8d48988d1d2941735,4c2d4a20e307d13a00ad0dda,48.962651,-122.440303
Yun Ga Ne,Korean Restaurant,4bf58dd8d48988d113941735,593c6b0df427de5f7f935384,48.748727,-122.480093
Jun's Sushi & Bento,Sushi Restaurant,4bf58dd8d48988d1d2941735,55bd6f24498ee5fd7438fd03,48.748678,-122.478497
Ginger Boat,Asian Restaurant,4bf58dd8d48988d142941735,4bf744e9b182c9b6e78c755a,48.73157450198772,-122.47218393429266
Tokyo House,Sushi Restaurant,4bf58dd8d48988d1d2941735,4bb5033e29269c743df6ca92,48.746536029852656,-122.47534191201248
Hawaii BBQ & Noodle House,Noodle House,4bf58dd8d48988d1d1941735,4b9ee76ef964a520af0937e3,48.77516739287185,-122.49622392619119
On Rice Thai Cuisine,Thai Restaurant,4bf58dd8d48988d149941735,4b1d3929f964a5203c0d24e3,48.737307094503,-122.47009838231791
Supon's Thai Kitchen,Thai Restaurant,4bf58dd8d48988d149941735,4b4b8fbdf964a5205aa026e3,48.736143900511685,-122.4706967366115
Asian Bistro,Asian Restaurant,4bf58dd8d48988d142941735,4c57864f7329c928ca3d8f80,48.84474,-122.575841
Chandara House Authentic Thai Cuisine,Thai Restaurant,4bf58dd8d48988d149941735,5206eee511d2714433fe6896,48.94188521699503,-122.4549846928653
Maikham,Thai Restaurant,4bf58dd8d48988d149941735,5cd74abf16fa04002cd00a87,48.72149658203125,-122.50236511230469
Luxe Thai,Thai Restaurant,4bf58dd8d48988d149941735,4b760542f964a52013372ee3,48.84748488362334,-122.5922113579714
Nok's Thai Cuisine,Thai Restaurant,4bf58dd8d48988d149941735,53990e9a498e78925a1ef641,48.75849533081055,-122.48684692382812
Thai Go & Noodles,Thai Restaurant,4bf58dd8d48988d149941735,58b346d40037eb7f1a00f86f,48.78531,-122.489494
Maikham,Asian Restaurant,4bf58dd8d48988d142941735,5441b3a1498ef447ef6c0bc6,48.748999,-122.476794
Pho & Teriyaki,Vietnamese Restaurant,4bf58dd8d48988d14a941735,4caf8a0c75ebb60c7c09bdad,48.93677473068237,-122.483278
Soy House,Vietnamese Restaurant,4bf58dd8d48988d14a941735,49d903e9f964a520ea5d1fe3,48.79004808993455,-122.49490536761637
Black Pearl,Vietnamese Restaurant,4bf58dd8d48988d14a941735,4b4be8b1f964a5200aab26e3,48.77172609996676,-122.45861016783554
Phô & More,Vietnamese Restaurant,4bf58dd8d48988d14a941735,4b592f9bf964a520988028e3,48.796651000000004,-122.486632
La Patisserie,Vietnamese Restaurant,4bf58dd8d48988d14a941735,4ccf08fd54f0b1f76fa725ca,48.771665000000006,-122.493032
The Road House Bar and Grille,BBQ Joint,4bf58dd8d48988d1df931735,5a4c5173acc5f55d42e7742f,48.826209,-122.217408
Jeckyl & Hyde,BBQ Joint,4bf58dd8d48988d1df931735,4ef3934d93ad743f5e7c7f3f,48.75761,-122.46533400000001
Bare Bones BBQ,BBQ Joint,4bf58dd8d48988d1df931735,5542f1ab498e26cd79b49e7e,48.79488161987693,-122.48577296733858
Burnt Ends,BBQ Joint,4bf58dd8d48988d1df931735,5d053ffa113cf1002325e9fd,48.934199,-122.48471
Green Frog Cafe Acoustic Tavern,BBQ Joint,4bf58dd8d48988d1df931735,4ba2c31cf964a520151738e3,48.74570968284707,-122.48139455738152
Roll 'n Smoke Barbeque and Catering,BBQ Joint,4bf58dd8d48988d1df931735,4e87b36fc2eef561036bf580,48.749426384121556,-122.47227072715759
Avenue Bread Mothership,Bakery,4bf58dd8d48988d16a941735,4ee10b9b9adf58ec9e73dd61,48.757085,-122.46743400000001
Barb’s Pies,Bakery,4bf58dd8d48988d16a941735,5ce9a14366f3cd002cd9c677,48.84733,-122.592239
Dorris's Donuts,Bakery,4bf58dd8d48988d16a941735,4c0024de37850f47b0cf973f,48.940639000000004,-122.470669
Good To Go Meatpies-Lynden,Bakery,4bf58dd8d48988d16a941735,52338bc3498ed213147a8a8e,48.92028,-122.34459
Wonder Bakery Thriftshop,Bakery,4bf58dd8d48988d16a941735,4c657cffe75ac928fed6f4da,48.75458953555702,-122.46493442918734
Engrained,Bakery,4bf58dd8d48988d16a941735,4e9db36b722e2953f7c6c551,48.732855948125156,-122.48607510662286
Opera French Pastries & Coffee,Bakery,4bf58dd8d48988d16a941735,5940a90a061b51336f44052d,48.748751,-122.480567
Breadfarm @ Bham Farmer's Market,Bakery,4bf58dd8d48988d16a941735,51d871ef498e4355535c9663,48.747188,-122.481063
The Mill,Bistro,52e81612bcbc57f1066b79f1,583674f04bc2f130364c70c6,48.941912,-122.455451
Cosmo's Bistro,Bistro,52e81612bcbc57f1066b79f1,5556b2f5498eae8640c61bff,48.74733206590055,-122.47900034032679
Culture Cafe,Bistro,52e81612bcbc57f1066b79f1,5692e871498e4a49a68fc9b7,48.747370000000004,-122.47921000000001
Cosmos Bistro,Bistro,52e81612bcbc57f1066b79f1,55f0d8ef498e3c3788184bc9,48.746905118572066,-122.47826439032848
Wanida Thai Cuisine,Thai Restaurant,4bf58dd8d48988d149941735,5750c3b3498e848fc8357884,48.758797,-122.486855
JJ's Food Stop,Restaurant,4bf58dd8d48988d1c4941735,4b8aa77ff964a520d17732e3,48.723970223517476,-122.48801746474442
20th Century Bowling,Bowling Alley,4bf58dd8d48988d1e4931735,4b8743bcf964a52046b931e3,48.749910724955136,-122.47517132731534
Zoe's Bookside Bagels,Bagel Shop,4bf58dd8d48988d179941735,4c92780e418ea1cde13ca585,48.73812255693257,-122.48536283883602
Arlis's Restaurant,Breakfast Spot,4bf58dd8d48988d143941735,4b12c5aff964a520cd8d23e3,48.752650929593926,-122.47533836800594
McDonald's,Breakfast Spot,4bf58dd8d48988d143941735,4bff0a394e5d0f47f1967d1f,48.84854438269659,-122.57321834564209
StrEAT Food,Food Truck,4bf58dd8d48988d1cb941735,4c44f0fa36d6a593db3f6ba8,48.859376012587795,-122.58455586805417
Black Pearl,Thai Restaurant,4bf58dd8d48988d149941735,51c21bbe498e97c72d469a2c,48.78893389058547,-122.51365189714372
Pho & Teriyaki,Vietnamese Restaurant,4bf58dd8d48988d14a941735,5001ca45e4b0ed544962db7c,48.803977,-122.485522
Phò,Vietnamese Restaurant,4bf58dd8d48988d14a941735,4fadcfc9e4b0fa27b82fcc7c,48.80400692405427,-122.48562707282727
Black Pearl,Asian Restaurant,4bf58dd8d48988d142941735,4cf96b53c671721e7c0db718,48.74843152842028,-122.47855843064983
The Skagit Casino Resort,Casino,4bf58dd8d48988d17c941735,4b4e4b0bf964a5205ae826e3,48.55946365209428,-122.3467259473275
Silver Reef Casino Buffet,Buffet,52e81612bcbc57f1066b79f4,5c8479cc4c954c002c89df4b,48.8184700012207,-122.62760925292969
Super Buffet,Buffet,52e81612bcbc57f1066b79f4,4ec42051991123243675761c,48.791753587981205,-122.49055019304481
The Cocoanut Grove,Burger Joint,4bf58dd8d48988d16c941735,4ba67480f964a5204f5439e3,48.767840988981,-122.51848548662596
The Alger Bar & Grille,Bar,4bf58dd8d48988d116941735,4d52156c3062a1cd43de6da3,48.61991469915346,-122.34078749532823
Wendy’s,Burger Joint,4bf58dd8d48988d16c941735,4ba93c70f964a520ee163ae3,48.79967858669562,-122.48661518096918
Wendy’s,Burger Joint,4bf58dd8d48988d16c941735,4b3ab410f964a520016d25e3,48.733915808520564,-122.47040659189224
Super Duper Burger & Teriyaki,Burger Joint,4bf58dd8d48988d16c941735,4ca23e5b7f84224b1bbeba58,48.720355,-122.490624
Bellingham Bar & Grill,Bar,4bf58dd8d48988d116941735,4b514945f964a520d14927e3,48.751080541464454,-122.47717029928296
Grants Burgers,Burger Joint,4bf58dd8d48988d16c941735,4e4af0fbb61c745d8ae9b569,48.848091,-122.60440600000001
Fat Shack,Burger Joint,4bf58dd8d48988d16c941735,5a24507675a6ea748f702268,48.790006,-122.495101
Zane Burgers,Burger Joint,4bf58dd8d48988d16c941735,57f6ad48498e4abf0a6f5617,48.719619,-122.501969
Grant's Burgers - Lynden Station,Burger Joint,4bf58dd8d48988d16c941735,4d7fce2895c1a143ad74ecf2,48.938871,-122.48220500000001
Whiskey's Burger Bistro,Burger Joint,4bf58dd8d48988d16c941735,571c1a11498e4f08274fdc51,48.719771,-122.502292
Bob's Burgers & Brew,Burger Joint,4bf58dd8d48988d16c941735,4ba2d8b8f964a520ca1d38e3,48.713008880615234,-122.3271255493164
Avellino,Café,4bf58dd8d48988d16d941735,4b82d39af964a52088e730e3,48.74988159671838,-122.4772019809613
Camber,Café,4bf58dd8d48988d16d941735,597ce6390e5da85ede8f81d7,48.75101639311651,-122.48118456603156
Bellingham Coffee Company,Café,4bf58dd8d48988d16d941735,555e1ae3498e52b9eaf82a3d,48.789557,-122.443117
Miller Market,Café,4bf58dd8d48988d16d941735,4eb2e057b80348350a3e3707,48.7366511575069,-122.48517694738715
Blue Horse Gallery,Café,4bf58dd8d48988d16d941735,4b918700f964a52007c333e3,48.751018,-122.481804
"Farmer's Roost Cafe, Everson, Wa",Café,4bf58dd8d48988d16d941735,4d20b9edbdd7a09315c3efce,48.92007803665559,-122.34554702735804
Taproot Cafe,Café,4bf58dd8d48988d16d941735,4ba54d31f964a52030f838e3,48.735454,-122.719001
Cubano Cubano,Cuban Restaurant,4bf58dd8d48988d154941735,5b0b0edd1b0ea5002c350c1a,48.760104,-122.464697
Firehall Cafe,Café,4bf58dd8d48988d16d941735,518324b0498e97685200c88e,48.942970275878906,-122.45133972167969
Streamer Espresso,Café,4bf58dd8d48988d16d941735,50ccc984e4b0956d335f250e,48.93938446044922,-122.47946166992188
Drizzle,Café,4bf58dd8d48988d16d941735,57ae5447498e1e43ed790323,48.943149,-122.452932
Gigi,Café,4bf58dd8d48988d16d941735,4ea1c16fbe7ba4918df4aecf,48.78839,-122.443294
Edison Cafe,Café,4bf58dd8d48988d16d941735,4b37ab3ff964a520fb4325e3,48.562017,-122.440371
Perch & Play,Café,4bf58dd8d48988d16d941735,5082e651e4b0e5b1525e3fbf,48.75333993331125,-122.47017565180883
Hotshots cafe,Café,4bf58dd8d48988d16d941735,4bc89ac015a7ef3b956e7bda,48.77350997924805,-122.47103118896484
Evolve Chocolate + Cafe,Café,4bf58dd8d48988d16d941735,5b84c8a8872f7d002ca7fad4,48.72073,-122.50362
Rock's Edge Cafe,Café,4bf58dd8d48988d16d941735,4e00f3ac315175a7f3fa166f,48.73178529793762,-122.48843307753225
The Lightcatcher Cafe,Café,4bf58dd8d48988d16d941735,4be1bd0e4283c9b6195354f8,48.753265380859375,-122.4791259765625
Buzzz Coffee,Café,4bf58dd8d48988d16d941735,4c15806ea5eb76b0a282c3b7,48.785994,-122.49089
StrEAT Food,Café,4bf58dd8d48988d16d941735,52a5177b11d278ee574b5348,48.72182656972182,-122.51260460728135
Dori's Coffee Shop,Café,4bf58dd8d48988d16d941735,554a9b7f498e9211051e2b34,48.74742046512257,-122.47843888698858
trapeze,Café,4bf58dd8d48988d16d941735,4f299f3fe4b0576e6e0282a3,48.75202941894531,-122.474609375
Barnes & Noble Café,Café,4bf58dd8d48988d16d941735,530a6680498e75d686109d9e,48.78938642821811,-122.48672560087091
Cafe Velo,Café,4bf58dd8d48988d16d941735,58715b001470b068900ce9c2,48.752783,-122.48026
Firehouse Cafe,Café,4bf58dd8d48988d16d941735,538269e4498ef71aaaed686c,48.719978,-122.500059
The Grill,Comfort Food Restaurant,52e81612bcbc57f1066b7a00,57801251498eb141108f2731,48.773971,-122.461239
Haggen Food & Pharmacy,Deli / Bodega,4bf58dd8d48988d146941735,4b690067f964a52084962be3,48.8433458,-122.5810616
Everybody's Store,Deli / Bodega,4bf58dd8d48988d146941735,4bf97d1b5317a593d95c017f,48.788993409896406,-122.19200098201154
Coffee Junction,Deli / Bodega,4bf58dd8d48988d146941735,4e3c773dfa76455375ab2e15,48.72059631347656,-122.5102310180664
Giffords Corner Store,Deli / Bodega,4bf58dd8d48988d146941735,4be3243db02ec9b6d3ae4ec0,48.762218390073315,-122.48831386597477
Slough foods,Deli / Bodega,4bf58dd8d48988d146941735,4c718dad4bc4236a300cc97a,48.562205991396844,-122.44379457092988
Europa Market,Deli / Bodega,4bf58dd8d48988d146941735,4e99e8022c5b4d640525697c,48.785765999999995,-122.48512
Ralf's Bavarian Bakery,Deli / Bodega,4bf58dd8d48988d146941735,4bcdec91fb84c9b68ad9223e,48.747033,-122.480617
Haggen,Supermarket,52f2ab2ebcbc57f1066b8b46,4ab8589ef964a520e17c20e3,48.73261224883214,-122.4718335423131
Pure Bliss Desserts,Dessert Shop,4bf58dd8d48988d1d0941735,4cd0d09248b837045343f5de,48.75139063256687,-122.47646450860069
Cinnabon,Bakery,4bf58dd8d48988d16a941735,4e135d0c2fb6cb6e9a42aeee,48.785994,-122.49089
Community Food Co-Op Bakery,Bakery,4bf58dd8d48988d16a941735,5793bdb7498e2db41ab62102,48.747924,-122.475495
Lynden Dutch Bakery,Bakery,4bf58dd8d48988d16a941735,4b818e58f964a520d1ae30e3,48.9426239,-122.4527147
Great Harvest Bread Co.,Bakery,4bf58dd8d48988d16a941735,4b33b036f964a520e91c25e3,48.749496,-122.47488500000001
Insomnia Cookies,Dessert Shop,4bf58dd8d48988d1d0941735,5cad0339396de0002c752683,48.731543,-122.471011
Farm To Market Bakery,Bakery,4bf58dd8d48988d16a941735,4bc0b7292a89ef3baafaf088,48.561274,-122.44412700000001
Papa's Sweets,Dessert Shop,4bf58dd8d48988d1d0941735,4de435c052b1d38d2998cdef,48.719881,-122.502848
Bread Farm,Bakery,4bf58dd8d48988d16a941735,4bc8d393fb84c9b6e4d0193e,48.561576907189064,-122.44266460561758
Mad Batter Cupcakes and Confections,Cupcake Shop,4bf58dd8d48988d1bc941735,53ecc64f498ee4a59d711a79,48.720308,-122.504141
Menchie's,Frozen Yogurt Shop,512e7cae91d4cbb4e5efe0af,51a777e9498e225cfdbb5836,48.789269,-122.51295
Lynden Froyo,Frozen Yogurt Shop,512e7cae91d4cbb4e5efe0af,5b46c1a4db3aef00240cd251,48.963509,-122.440212
TCBY,Frozen Yogurt Shop,512e7cae91d4cbb4e5efe0af,5280076711d2710a26b745e4,48.78582795762335,-122.48964917851558
Dairy Queen,Ice Cream Shop,4bf58dd8d48988d1c9941735,4a9f47fbf964a520093d20e3,48.75669272163327,-122.46403634548187
Dairy Queen,Ice Cream Shop,4bf58dd8d48988d1c9941735,4b7730e3f964a52060862ee3,48.792323050007504,-122.49068677425385
Dairy Queen,Ice Cream Shop,4bf58dd8d48988d1c9941735,4b5e0ea5f964a5204d7b29e3,48.84567629455767,-122.58074572288538
Mallard,Ice Cream Shop,4bf58dd8d48988d1c9941735,4b51378af964a520a44727e3,48.749828351359675,-122.47742371279173
Edaleen Dairy Store,Ice Cream Shop,4bf58dd8d48988d1c9941735,56e86598498e9d491a25f9e4,48.855857849121094,-122.58963012695312
Edaleen Dairy Ice Cream Shoppe,Ice Cream Shop,4bf58dd8d48988d1c9941735,50b994bde4b0040a84695de7,48.94927028126786,-122.43581848399083
Sirena Gelato,Ice Cream Shop,4bf58dd8d48988d1c9941735,4b6f94eaf964a520caf62ce3,48.720103000025865,-122.50495949041436
Acme Ice Cream,Ice Cream Shop,4bf58dd8d48988d1c9941735,51d9e49c498ea2ccfa489dbf,48.720186,-122.50345
Coldstone Creamery,Ice Cream Shop,4bf58dd8d48988d1c9941735,4f1e34a2e4b0b73eef67dff9,48.785994,-122.49089
Mayberry's Sporting Goods And Soda Fountain,Ice Cream Shop,4bf58dd8d48988d1c9941735,4df940a145dd2b6764bb47ce,48.755024,-122.47610800000001
Yogu-san,Ice Cream Shop,4bf58dd8d48988d1c9941735,4c3bc1605810a593f92abb3c,48.785994,-122.49089
TCBY,Ice Cream Shop,4bf58dd8d48988d1c9941735,5178029ce4b01536374dedbd,48.7704548013654,-122.44890425431112
Breadfarm,Bakery,4bf58dd8d48988d16a941735,4b48d90df964a520ce5926e3,48.56231120812567,-122.44371671650191
The Filling Station,Diner,4bf58dd8d48988d147941735,5c3a6bf7f00a70002c1f93d6,48.7628,-122.4652
Sehome Diner,Diner,4bf58dd8d48988d147941735,4b69e8baf964a52089bb2be3,48.732288,-122.471819
Bob's Burgers & Brew,Diner,4bf58dd8d48988d147941735,4b5cd0b5f964a520644529e3,48.84527545692208,-122.57856487060614
Denny's,Diner,4bf58dd8d48988d147941735,4d69a56ec165548162bbee81,48.849220275878906,-122.57311248779297
Lafeen's Family Pride Donuts and Ice Cream,Donut Shop,4bf58dd8d48988d148941735,4b7b85e0f964a5203d662fe3,48.74956927064465,-122.424957901732
Rolling Donuts & Café,Donut Shop,4bf58dd8d48988d148941735,55a6ebce498eb6734d991453,48.77170944213867,-122.49376678466797
Johnny's Donuts,Donut Shop,4bf58dd8d48988d148941735,4e9730ceb8f7d8c6911ea8c2,48.75923,-122.47538200000001
Rocket Donuts,Donut Shop,4bf58dd8d48988d148941735,4b783efbf964a52042bf2ee3,48.751370204962825,-122.48142145647486
Dutch Mothers Family Restaurant,Restaurant,4bf58dd8d48988d1c4941735,4b8192fdf964a52008b030e3,48.943037993126445,-122.45203067545337
Waterfront Seafood & Bar,Fish & Chips Shop,4edd64a0c7ddd24ca188df1a,4b679977f964a52011572be3,48.753006160535605,-122.48444129882974
Lighthouse Bar & Grill,Bar,4bf58dd8d48988d116941735,4f95c5a0754af8efd41b7940,48.75388161036818,-122.49711387063415
Good Burger,American Restaurant,4bf58dd8d48988d14e941735,50c94c21e4b017f4daec2339,48.84761633481555,-122.59190874305037
Bayside Cafe,American Restaurant,4bf58dd8d48988d14e941735,4aedde97f964a520c0cf21e3,48.75738364947496,-122.49575990645545
Bellis Fair Mall,Shopping Mall,4bf58dd8d48988d1fd941735,4af8996ef964a520990e22e3,48.7857577,-122.490641
Kulshan Brewing Company,Food Truck,4bf58dd8d48988d1cb941735,4f7a52e1e4b07cdfac8b33d3,48.76015470009676,-122.46475199118736
goods: Produce and Nursery,Farmers Market,4bf58dd8d48988d1fa941735,4f88d605bb3d0cb6b54ac447,48.765485,-122.48861799999999
Tadeo's Taco truck,Food Truck,4bf58dd8d48988d1cb941735,558621d0498eb326a12c280b,48.891869296878504,-122.48581047567308
StrEAT Food @ The Heritage Flight Museum,Food Truck,4bf58dd8d48988d1cb941735,4f734e91e4b08f62be7929b1,48.792285,-122.53126
Super Mario's,Food Truck,4bf58dd8d48988d1cb941735,4b4a991bf964a520548b26e3,48.771032,-122.492903
Cherry Stand,Food Truck,4bf58dd8d48988d1cb941735,51e065a5498ef82702939af5,48.84257507324219,-122.48577117919922
StreatFood @Wander Brewery,Food Truck,4bf58dd8d48988d1cb941735,53926563498ecef18307ed26,48.754267999999996,-122.47412
Hot Mess,Food Truck,4bf58dd8d48988d1cb941735,50fdb3a4e4b07b833ae205c0,48.76019698187914,-122.46487567061301
StrEAT Food @ Samuel's Furniture,Food Truck,4bf58dd8d48988d1cb941735,4d4c4df5a33fb1f7d810bd80,48.845389000000004,-122.584848
Roll N Smoke BBQ @Kulshan Brewing Company,Food Truck,4bf58dd8d48988d1cb941735,4f6cb4ee0cd6e1a8d912402a,48.76023443701618,-122.46466398239137
Wicked Dog,Food Truck,4bf58dd8d48988d1cb941735,507328fae4b013b9507e991c,48.75099563598633,-122.47770690917969
Agave Taco Truck,Food Truck,4bf58dd8d48988d1cb941735,519a86dd498e5fc3770a0a1e,48.71825533464887,-122.5031393946483
jt's smokin' barbecue @ Kulshan Brewing,Food Truck,4bf58dd8d48988d1cb941735,5543d3e1498ef36680d4b2db,48.760108,-122.464764
Bite Of Bellingham,Food Truck,4bf58dd8d48988d1cb941735,523f55cf498ed9c5f0241972,48.747268,-122.480664
Logos' Philly Cheesesteak Party,Food Truck,4bf58dd8d48988d1cb941735,4f282f6c00390e6455ad3817,48.75164760051371,-122.47974872589111
Diego's Food Truck @ Kulshan,Food Truck,4bf58dd8d48988d1cb941735,53b9d29b498ec20e7e0ae3b8,48.760218,-122.464638
Cicchitti's East Coast Pizza,Food Truck,4bf58dd8d48988d1cb941735,551d8eb2498e9c0a87a3d974,48.75264911565994,-122.47519651568905
StrEAT Food @Veg Express Lot,Food Truck,4bf58dd8d48988d1cb941735,4e8def24f9f4d4b14d366913,48.75494387441868,-122.46601581573486
Tacos El Mexicano,Food Truck,4bf58dd8d48988d1cb941735,51a65f86498e929a0d8a4fb2,48.755045,-122.465908
Delicious Mischief,Food Truck,4bf58dd8d48988d1cb941735,54dd384d498e70bf7dad0242,48.760600678264105,-122.46500182148584
Over Easy,Breakfast Spot,4bf58dd8d48988d143941735,556ace14498e5bcca80f7f22,48.762384929359776,-122.46385319019443
Little Cheerful Café,American Restaurant,4bf58dd8d48988d14e941735,4b23ee9bf964a5202e5d24e3,48.74928175230952,-122.47805778183627
Eat Restaurant and Bar,French Restaurant,4bf58dd8d48988d10c941735,5839ea146b0cdb5909e40e46,48.748775,-122.480316
Magdalenas,French Restaurant,4bf58dd8d48988d10c941735,4bdc6b3bfed22d7fc11158c9,48.720658,-122.50453
KFC,Fried Chicken Joint,4d4ae6fc7a7b7dea34424761,4be723412468c9287c240243,48.77129081772812,-122.45995912512501
Bantam 46,American Restaurant,4bf58dd8d48988d14e941735,5d31da2dec65e00007eb4618,48.74998092651367,-122.47725677490234
Lee's,Fried Chicken Joint,4d4ae6fc7a7b7dea34424761,4b9c24dff964a520974e36e3,48.762776,-122.465236
Hong Kong Garden,Chinese Restaurant,4bf58dd8d48988d145941735,4dee9957d4c01942530271f0,48.764042010261335,-122.4863202912887
buffalo wild wings,Fried Chicken Joint,4d4ae6fc7a7b7dea34424761,544b175b498e020c024ba091,48.74036644835266,-122.48943591201099
122 W Brewing,Gastropub,4bf58dd8d48988d155941735,5d606b41cde9f800077eb9f3,48.7625675,-122.4858342
NYP Bar and Grill,Gastropub,4bf58dd8d48988d155941735,5d9b528b94b8cd00087930dc,48.96341402,-122.44004778
Schweinhaus Biergarten,German Restaurant,4bf58dd8d48988d10d941735,53b4defd498e28001d61d209,48.74919806271131,-122.47562038845196
Avellino Gluten Free Bakery,Gluten-free Restaurant,4c2cd86ed066bed06c3c5209,5c0eaf64270ee7002ca795b9,48.76325,-122.474773
Five Columns,Greek Restaurant,4bf58dd8d48988d10e941735,4b943ee5f964a520ec7034e3,48.739665,-122.46934499999999
Syros Greek & Italian Restaurant,Greek Restaurant,4bf58dd8d48988d10e941735,4c26871ddb519521216b2c3a,48.943191,-122.450879
Rhodes Cafe,Café,4bf58dd8d48988d16d941735,4b2918e1f964a520a69824e3,48.743635,-122.46120900000001
Fairhaven Poke,Poke Place,5bae9231bedf3950379f89d4,57b8e4de498ed2ce1412aafc,48.720053,-122.503171
Just Poke & Verve Bowl,Poke Place,5bae9231bedf3950379f89d4,5cd87e7604d1ae002cb1157d,48.748167,-122.47908
El Capitan's,Hot Dog Joint,4bf58dd8d48988d16f941735,4bf79f665ec320a1015387d3,48.74884630507243,-122.48077869415285
Neiner Neiner Weiner,Hot Dog Joint,4bf58dd8d48988d16f941735,4b99838af964a520978035e3,48.771408,-122.458054
Sausburger Stand,Hot Dog Joint,4bf58dd8d48988d16f941735,520fd44d11d25c858c35985e,48.71818542480469,-122.68330383300781
Simmering Tava,Indian Restaurant,4bf58dd8d48988d10f941735,5bff21fd5d891b002cb9ef22,48.74906921386719,-122.47664642333984
Taste Of india,Indian Restaurant,4bf58dd8d48988d10f941735,5585d9cb498e7d009ba917e7,48.785587,-122.483276
Curry House,Indian Restaurant,4bf58dd8d48988d10f941735,4b857f66f964a520c56131e3,48.84690703995475,-122.59144167780339
Punjabi Junction,Indian Restaurant,4bf58dd8d48988d10f941735,554fe9d3498e75da5ee44708,48.799603000000005,-122.48548400000001
India Grill,Indian Restaurant,4bf58dd8d48988d10f941735,4b9eaf0df964a5205af936e3,48.749413,-122.48024099999999
Naan & Brew,North Indian Restaurant,54135bf5e4b08f3d2429dfdd,58b8825bd8f3e95ec2bc1382,48.747272,-122.481206
Archer Alehouse,Pub,4bf58dd8d48988d11b941735,4b49135ff964a520db6426e3,48.720273592986196,-122.50468626372574
Luna's Bistro,Italian Restaurant,4bf58dd8d48988d110941735,540e2c80498e7fb902492bbc,48.77006149291992,-122.4483871459961
WWU PAC,Italian Restaurant,4bf58dd8d48988d110941735,4cacd9a3f47ea14343e79421,48.73805613935063,-122.48658917981066
Tivoli,Italian Restaurant,4bf58dd8d48988d110941735,4b1f3118f964a520c82424e3,48.751163482666016,-122.47972106933594
Big Love Juice Fairhaven,Juice Bar,4bf58dd8d48988d112941735,5cc0ef37826444002cec2448,48.721131,-122.504884
Big Orange,Juice Bar,4bf58dd8d48988d112941735,5623fb83498ee6007e99a2f0,48.78507654317571,-122.48920057273281
Emerald City Smoothie,Juice Bar,4bf58dd8d48988d112941735,4b90148cf964a5205a7433e3,48.74405481887154,-122.46108366818876
Juice It Juice Bar,Juice Bar,4bf58dd8d48988d112941735,4c41eb9be26920a13c325fe7,48.752024,-122.47458999999999
Freshens Smoothies,Juice Bar,4bf58dd8d48988d112941735,51269311e4b0052c9466fc7a,48.736965287842054,-122.48608904052651
Orange Julius,Juice Bar,4bf58dd8d48988d112941735,4be4cc52d4f7c9b60ebd2420,48.785994,-122.49089
La Gloria Restaurant,Latin American Restaurant,4bf58dd8d48988d1be941735,59f398c77564f708b138a858,48.791314,-122.485216
Go Natural Foods,South American Restaurant,4bf58dd8d48988d1cd941735,5d224b4b69ad4f0023be351b,48.75761,-122.46533400000001
Beaver Inn,Bar,4bf58dd8d48988d116941735,4b687732f964a520527a2be3,48.74937202897236,-122.47833230913797
Mediterranean Specialties,Mediterranean Restaurant,4bf58dd8d48988d1c0941735,4bd0f6d7b221c9b6beded4d0,48.729512,-122.474658
Marta's Cocina,Mexican Restaurant,4bf58dd8d48988d1c1941735,4c1c1564eac020a1ea0046c2,48.940639000000004,-122.470669
El Ranchito,Mexican Restaurant,4bf58dd8d48988d1c1941735,4cb8fea6c7228cfa62e60cce,48.936890000000005,-122.483558
Cancun Mexican Restaurant,Mexican Restaurant,4bf58dd8d48988d1c1941735,4bce9751c564ef3b5493eef0,48.96335388587861,-122.44009122846809
Mexico Tipico,Mexican Restaurant,4bf58dd8d48988d1c1941735,4de7e1651838131a856059e0,48.92140361107975,-122.32228831760725
El Agave,Mexican Restaurant,4bf58dd8d48988d1c1941735,5498e98f498e77d5db8762fc,48.71307157503966,-122.3269045073217
Taqueria,Mexican Restaurant,4bf58dd8d48988d1c1941735,59b30fec31fd145ab638b8a0,48.743635,-122.46120900000001
The Habanero Factory,Mexican Restaurant,4bf58dd8d48988d1c1941735,4e97937a77c850afa8139e07,48.785994,-122.49089
Monster Burritos,Mexican Restaurant,4bf58dd8d48988d1c1941735,5803d0f238faf515ea555dc6,48.750095,-122.47693
Taco Bell,Mexican Restaurant,4bf58dd8d48988d1c1941735,54b9949b498eec46cf82425c,48.773218990774694,-122.45843802529113
Diamond Jim's,Diner,4bf58dd8d48988d147941735,4b50caeaf964a520c63227e3,48.76196258432468,-122.48602606154876
Chipotle Mexican Grill,Mexican Restaurant,4bf58dd8d48988d1c1941735,546a7295498e4764f519a1c7,48.785206,-122.4893741
El Tapatio,Mexican Restaurant,4bf58dd8d48988d1c1941735,51981738498eda3910a13db8,48.891922,-122.616997
Taco Bell,Mexican Restaurant,4bf58dd8d48988d1c1941735,4bdddcab587b2d7faf625509,48.7613674146436,-122.46632055315318
Los Cantaritos,Mexican Restaurant,4bf58dd8d48988d1c1941735,58575803fb549a6da29b2b02,48.771696,-122.492774
Tadeo's Mexican Restaurant,Mexican Restaurant,4bf58dd8d48988d1c1941735,5cb55731724750002c6bad63,48.7490838,-122.4774305
El Agave Mexican Restaurant,Mexican Restaurant,4bf58dd8d48988d1c1941735,5c47a644ad910e0039523ccd,48.720303,-122.50259299999999
El Amigo Mexican Restaurant,Mexican Restaurant,4bf58dd8d48988d1c1941735,4cd4ce8867c7236aec940f77,48.771665000000006,-122.493032
Tadeo's Restaurant,Mexican Restaurant,4bf58dd8d48988d1c1941735,54e9400f498e9f7093d1f75b,48.84491827189463,-122.5796319097949
Mi Casa,Mexican Restaurant,4bf58dd8d48988d1c1941735,4c02cd49310fc9b6f602c561,48.729703,-122.47474908828735
Tadeo's On Northwest,Mexican Restaurant,4bf58dd8d48988d1c1941735,54a5adf6498ea5a445f49787,48.771480560302734,-122.49282836914062
Taco Del Mar,Mexican Restaurant,4bf58dd8d48988d1c1941735,4b58c7abf964a520ce6a28e3,48.75011006337753,-122.47697277698039
Taco Time NW,Mexican Restaurant,4bf58dd8d48988d1c1941735,5e2a2481dc48600007bdb0dc,48.7900363,-122.5122936
El Agave Mexican Restaurant,Mexican Restaurant,4bf58dd8d48988d1c1941735,4da67c254b22737295c2380e,48.737018385257144,-122.47048701245143
El Tapatio,Mexican Restaurant,4bf58dd8d48988d1c1941735,4d0151292f03224bc8cb5fe2,48.802795,-122.486544
A Que Tacos,Burrito Place,4bf58dd8d48988d153941735,4d8a88aa7d4c548194a66b71,48.73663205908066,-122.46895294607552
mi rancho market,Taco Place,4bf58dd8d48988d151941735,5722ad32cd102256e14dde6d,48.771832,-122.493633
Casa Que Pasa,Bar,4bf58dd8d48988d116941735,46783ce1f964a520ea471fe3,48.750828532610676,-122.4760863359263
Jalepenos Family Mexican Restaurant & Lounge,Mexican Restaurant,4bf58dd8d48988d1c1941735,4b7b4097f964a520b15a2fe3,48.75243649927167,-122.48404317424257
Taco Time,Taco Place,4bf58dd8d48988d151941735,5b47cb211953f3002cde9110,48.790041,-122.512399
El Tapatio Taco Truck,Food Truck,4bf58dd8d48988d1cb941735,4ca2838f750ca093bd141167,48.78860425741873,-122.41490651589979
Netos Market & Bakery,Taco Place,4bf58dd8d48988d151941735,51a3cb9b498e3b4c74a3d6fe,48.775975,-122.498469
Tadeo's Restaurant,Taco Place,4bf58dd8d48988d151941735,4d52e7dde0275481bcadb9b6,48.74888650757087,-122.47768555786384
Northside Restaurant & Lounge,Restaurant,4bf58dd8d48988d1c4941735,4b81e35af964a520c3c230e3,48.77538440314835,-122.49659375144165
Sol de Mexico,Mexican Restaurant,4bf58dd8d48988d1c1941735,4b81b87af964a520e1b930e3,48.74470321788447,-122.46023393460734
Taco Time,Taco Place,4bf58dd8d48988d151941735,4b414680f964a52078c425e3,48.800040767410515,-122.48657336838289
Taco Time,Taco Place,4bf58dd8d48988d151941735,4bb65f372f70c9b6cd4f8530,48.9348408117197,-122.48586726823726
El Albanil,Mexican Restaurant,4bf58dd8d48988d1c1941735,4f207251e4b07fb2480f7e1f,48.73370853179335,-122.46886975280228
El Tapatio,Food Truck,4bf58dd8d48988d1cb941735,4d890bbd5ecdf04d6be7a18a,48.79812577007674,-122.52913443732407
Mariposa,Taco Place,4bf58dd8d48988d151941735,5365669b498e4c1228171495,48.561308,-122.443373
The Burrito King,Taco Place,4bf58dd8d48988d151941735,54f90dbe498eab354bc06499,48.72973419778791,-122.4745460607529
my ranchero,Taco Place,4bf58dd8d48988d151941735,55ff0b63498e1f3058555d60,48.771899,-122.493373
Ah! Chihuahua Taco Truck,Food Truck,4bf58dd8d48988d1cb941735,4d091c6c00e6b1f7cd1511d7,48.74977786231936,-122.4247776144677
Taco Del Mar,Latin American Restaurant,4bf58dd8d48988d1be941735,4bf5bcfc9abec9b6a59424e8,48.796165782390766,-122.48677447242311
Jalapeños Taco Truck,Food Truck,4bf58dd8d48988d1cb941735,5221abad11d2fe5566afc1de,48.74544356440008,-122.47943369812619
Espinoza,Mexican Restaurant,4bf58dd8d48988d1c1941735,4b8741cdf964a520e9b831e3,48.730947,-122.472701
A Que Tacos #2 @goods,Food Truck,4bf58dd8d48988d1cb941735,522e7e2b11d27cdcde55a8b2,48.76549344650521,-122.48880436281404
Mi Pueblito Taco Truck,Food Truck,4bf58dd8d48988d1cb941735,56e46a51498e7abdafc4bad7,48.945116779032105,-122.48469974740841
Tacos El Mexicano (Taco Truck),Taco Place,4bf58dd8d48988d151941735,4cfb637120fe3704d7e453f8,48.7495002746582,-122.4780044555664
Lilia's Mexican Cuisine,Tex-Mex Restaurant,56aa371ae4b08b9a8d5734ba,5a432550bd897e0adc57aac8,48.7899,-122.48426
Paws For A Beer,Pet Café,56aa371be4b08b9a8d573508,5897d1e603cf25555c95ab28,48.720137,-122.51024
Chuckanut Brewery & Kitchen,Brewery,50327c8591d4c4b30a586d5d,4b08d0c6f964a5208f1223e3,48.753336536738644,-122.48494424490525
McKay's Taphouse,Pizza Place,4bf58dd8d48988d1ca941735,4b50f388f964a5203f3a27e3,48.740312973987336,-122.47115767708219
Tino's Pizza & Pasta Company,Pizza Place,4bf58dd8d48988d1ca941735,4baae01af964a520908b3ae3,48.71074076654441,-122.33114378779429
Little Caesars Pizza,Pizza Place,4bf58dd8d48988d1ca941735,52f543da11d242eeca9a3b13,48.775517,-122.494729
Papa Murphy's,Pizza Place,4bf58dd8d48988d1ca941735,4b90534df964a5202d8433e3,48.744614259366976,-122.4576627263546
Pizza Time,Pizza Place,4bf58dd8d48988d1ca941735,4bb2e3fc2397b713fd9737b3,48.729512,-122.474658
Little Caesars Pizza,Pizza Place,4bf58dd8d48988d1ca941735,4baa6fdcf964a520056a3ae3,48.74438012942267,-122.46108379146048
Cascade Pizza & Italian Cuisine,Pizza Place,4bf58dd8d48988d1ca941735,4b88a64df964a520bd0632e3,48.76299446703001,-122.48631853335985
Pizza Hut,Pizza Place,4bf58dd8d48988d1ca941735,4b185f3ef964a520aed123e3,48.734913553717206,-122.47050851583481
World Famous Up & Up,Pizza Place,4bf58dd8d48988d1ca941735,4b039f7af964a520ec4f22e3,48.747884187826344,-122.47751134068545
Silver Reef - Pizzanini,Pizza Place,4bf58dd8d48988d1ca941735,4c45f41ff1d80f47f988a23c,48.81719337850886,-122.62563022126231
Domino's Pizza,Pizza Place,4bf58dd8d48988d1ca941735,4cdf32acdf986ea8cebce016,48.785636933422204,-122.4836309552029
Dimitri's Italian & Greek Restaurant & Lounge,Italian Restaurant,4bf58dd8d48988d110941735,4b108db4f964a520b17223e3,48.84663708836597,-122.59085881043849
Chevron,Pizza Place,4bf58dd8d48988d1ca941735,4b69cdc2f964a52041b52be3,48.938766366323705,-122.48583566726253
Domino's Pizza,Pizza Place,4bf58dd8d48988d1ca941735,4bf57e4598ac0f47fa3365a8,48.934868315733716,-122.66598096708549
Domino's Pizza,Pizza Place,4bf58dd8d48988d1ca941735,4bf45c242d629521c11c6058,48.84385800268098,-122.58278846740723
Papa Murphy's,Pizza Place,4bf58dd8d48988d1ca941735,4beae095ca97d13ad8956c77,48.84491879057569,-122.5758448986521
Westside Pizza,Pizza Place,4bf58dd8d48988d1ca941735,4c2fa815452620a1dbf11d0f,48.79541213225545,-122.491039006421
Crazy Bob's Pizza,Pizza Place,4bf58dd8d48988d1ca941735,4ed56bceb63478bbf828b1f7,48.79477870210055,-122.48561784039785
Goat Mountain Pizza,Pizza Place,4bf58dd8d48988d1ca941735,5046629de4b0eb12aaf100f1,48.75092671550979,-122.48088961429623
Papa Murphy's,Pizza Place,4bf58dd8d48988d1ca941735,4b905dacf964a520768633e3,48.76185613042624,-122.46409921822236
Papa Murphy's,Pizza Place,4bf58dd8d48988d1ca941735,4beae03fca97d13ac4956c77,48.78872743671018,-122.51238103613537
Pizza Hut Express,Pizza Place,4bf58dd8d48988d1ca941735,4c51efb3b6dabe9a33ac8912,48.785994,-122.49089
Papa Murphy's | Take 'N' Bake Pizza,Pizza Place,4bf58dd8d48988d1ca941735,4d5b0d301cffb1f74799cdae,48.93683777738089,-122.48370740749267
Domino's Pizza,Pizza Place,4bf58dd8d48988d1ca941735,503e8b9ee4b004154b8894b9,48.730947,-122.472701
Pizza Pipeline,Pizza Place,4bf58dd8d48988d1ca941735,4c4e903fdb2c20a187db9874,48.740337542223195,-122.47109115133722
Pizza Shack,Pizza Place,4bf58dd8d48988d1ca941735,4bf9bf705ec320a1dfcb8ad3,48.565292,-122.42180400000001
Guido's Italian Cuisine,Italian Restaurant,4bf58dd8d48988d110941735,4d71c1f60d0ca143c5849d83,48.845672,-122.594673
Galos,Portuguese Restaurant,4def73e84765ae376e57713a,5e1251e02b12f500088f1782,48.79815,-122.486433
Mean Poutine,Poutine Place,56aa371be4b08b9a8d5734c7,53c9be33498ebecd156fda51,48.942264556884766,-122.47168731689453
McDonald's,Restaurant,4bf58dd8d48988d1c4941735,4bd2669aa8b3a5931df4675f,48.93617745524209,-122.484900403565
Panda Express,Chinese Restaurant,4bf58dd8d48988d145941735,4ad41848f964a5204ae720e3,48.7713227677128,-122.46110906442483
Denny's,Breakfast Spot,4bf58dd8d48988d143941735,4bac1e24f964a52059e53ae3,48.7840912,-122.4855262
Five Guys,Burger Joint,4bf58dd8d48988d16c941735,4ba2c653f964a520331838e3,48.78939485552174,-122.51292582554629
Popeyes Louisiana Kitchen,Fried Chicken Joint,4d4ae6fc7a7b7dea34424761,5bc159c7838e59002c31f9a4,48.933368,-122.485807
California Tacos,Mexican Restaurant,4bf58dd8d48988d1c1941735,512bf28de4b016740a8c3a70,48.795509,-122.491196
IHOP,Breakfast Spot,4bf58dd8d48988d143941735,4b6db209f964a52040872ce3,48.79003,-122.49608
Thai House,Thai Restaurant,4bf58dd8d48988d149941735,4c5f703fde6920a14bfc9364,48.78359285262381,-122.48484846954884
Fairway Cafe,American Restaurant,4bf58dd8d48988d14e941735,4be866dfee96c928430cfebf,48.940639000000004,-122.470669
Glynn's Shamrock Pub,Irish Pub,52e81612bcbc57f1066b7a06,4b9b3091f964a520ddf835e3,48.83373897533242,-122.48642389236517
Little Caesars Pizza,Pizza Place,4bf58dd8d48988d1ca941735,4d549eecba5b224ba27a0514,48.91902160644531,-122.34101867675781
Goji Fusion Bistro,Asian Restaurant,4bf58dd8d48988d142941735,4d7c27e8645ea35d7a0441f8,48.7954556944844,-122.49134068359574
Caffe Rifugio,Café,4bf58dd8d48988d16d941735,4ba3d47ef964a520276438e3,48.8229866027832,-122.18534851074219
The Fork At Agate Bay,Gastropub,4bf58dd8d48988d155941735,4bf4a9f2ff90c9b6b7955528,48.75527105760174,-122.354573287337
Rocket Donuts,Donut Shop,4bf58dd8d48988d148941735,51d49754498e8c3b3b9bff2b,48.720218464330706,-122.50351469474933
Rudy's Pizzeria,Pizza Place,4bf58dd8d48988d1ca941735,4af769d3f964a520250922e3,48.7478849092315,-122.47775006996976
Underground Coffeehouse,Café,4bf58dd8d48988d16d941735,4bf882d7abdaef3befb4a184,48.739116195656514,-122.48670405794752
Pizzazza,Pizza Place,4bf58dd8d48988d1ca941735,4bb38fddeb3e95216c50cb0a,48.718231,-122.50173600000001
Skylark's Hidden Café,American Restaurant,4bf58dd8d48988d14e941735,4af37a22f964a52003ee21e3,48.71987832189201,-122.5037028691516
The Black Cat,French Restaurant,4bf58dd8d48988d10c941735,4b4d2099f964a520eecb26e3,48.71996195707414,-122.50213153104748
On Rice Thai Bistro,Thai Restaurant,4bf58dd8d48988d149941735,4b186adff964a52072d223e3,48.71990354221446,-122.50156768312722
Fat Pie Pizza,Pizza Place,4bf58dd8d48988d1ca941735,52e8659d498efac00875c7a3,48.720272322285695,-122.50379241713057
Cafe Akroteri,Mediterranean Restaurant,4bf58dd8d48988d1c0941735,4bdcddfa462b2d7f94b9113c,48.7495234880385,-122.47983966644999
Super Mario's,South American Restaurant,4bf58dd8d48988d1cd941735,4b9ed733f964a520940537e3,48.74941545716044,-122.47280659092908
Rook & Rogue Board Game Pub,American Restaurant,4bf58dd8d48988d14e941735,590d210028374e10e4f6725d,48.751744,-122.47868799999999
Leaf & Ladle,American Restaurant,4bf58dd8d48988d14e941735,51edd918498e999be69fddbf,48.746888320937664,-122.47981671653413
Rhodedendron Cafe,American Restaurant,4bf58dd8d48988d14e941735,4c4752a996abd13a7a5f7001,48.565586805208206,-122.42191876974125
Taco Lobo,Mexican Restaurant,4bf58dd8d48988d1c1941735,4ac25d38f964a520d59820e3,48.75130832031647,-122.47855681034017
AB Crepes,Creperie,52e81612bcbc57f1066b79f2,4f407790e4b0d395c75ff069,48.749581667463644,-122.4777047041841
Dragon River,Chinese Restaurant,4bf58dd8d48988d145941735,4fecacaee4b03cd042694f9b,48.750515,-122.478627
Blue Fin Sushi,Sushi Restaurant,4bf58dd8d48988d1d2941735,4b527345f964a520e47d27e3,48.73514299638484,-122.47026583707346
Pizza'zza,Pizza Place,4bf58dd8d48988d1ca941735,5289723911d21e520085518b,48.762809000000004,-122.441599
Little Caesars Pizza,Pizza Place,4bf58dd8d48988d1ca941735,4b7e0ee8f964a52032e12fe3,48.762361,-122.442097
Northwater Grill,American Restaurant,4bf58dd8d48988d14e941735,59c9af2b345cbe4381ca54f5,48.796228,-122.529854
Lummi Gateway,Café,4bf58dd8d48988d16d941735,5268164e498eeeb4831e5985,48.82150650024414,-122.55418395996094
The Bagelry,Bagel Shop,4bf58dd8d48988d179941735,4b242fc5f964a520396324e3,48.74974488585412,-122.47747970427675
Wonderful Buffet,Buffet,52e81612bcbc57f1066b79f4,4bafb778f964a520781a3ce3,48.79940065901676,-122.48638501697273
Uisce Irish Pub,Irish Pub,52e81612bcbc57f1066b7a06,4b3c2f58f964a520b18225e3,48.75107021421583,-122.47949250876854
Kuru Kuru Sushi,Sushi Restaurant,4bf58dd8d48988d1d2941735,4b1d4d52f964a520700e24e3,48.75434488822759,-122.49650423928284
Jalapenos,Mexican Restaurant,4bf58dd8d48988d1c1941735,4e5e835952b1425a377296e8,48.720239468041314,-122.50401224479316
Cafe Rumba,Peruvian Restaurant,4eb1bfa43b7b52c0e1adc2e8,4f6d346ce4b060033229d384,48.747053752101046,-122.47905486307552
Little Caesars Pizza,Pizza Place,4bf58dd8d48988d1ca941735,4bf491c3ff90c9b684765528,48.84787706,-122.59207784
Ciao Thyme,Café,4bf58dd8d48988d16d941735,4bd0f2b4046076b0491f7171,48.753167,-122.476879
Pepper Sisters,Mexican Restaurant,4bf58dd8d48988d1c1941735,4b59155ff964a520b87b28e3,48.74638428573071,-122.4806708832617
McDonald's,Restaurant,4bf58dd8d48988d1c4941735,4d94fb15ceb141bd53e9039c,48.801543,-122.482058
Hilltop Restaurant,American Restaurant,4bf58dd8d48988d14e941735,4b6b7b63f964a520960b2ce3,48.845912,-122.48663
Boomer's Drive-In,Burger Joint,4bf58dd8d48988d16c941735,4b528acaf964a520b08127e3,48.73907397762765,-122.46950898493782
Birch Door Cafe,American Restaurant,4bf58dd8d48988d14e941735,594bfb17ccad6b73c4357d51,48.793139000000004,-122.485308
Our Diner,American Restaurant,4bf58dd8d48988d14e941735,515ddabfe4b00e3f83f85ecb,48.85725831202551,-122.48550562752357
McDonald's,Restaurant,4bf58dd8d48988d1c4941735,4cf964a7d8468cfa898ee66b,48.78882738298032,-122.44309368915123
Mykonos Greek Restaurant,Mediterranean Restaurant,4bf58dd8d48988d1c0941735,4d4cea1b1a2d721e15b1911d,48.79011943113399,-122.52156222732414
Scotty Browns Social House,American Restaurant,4bf58dd8d48988d14e941735,4faf0a39e4b01cbf3072451a,48.795381699165084,-122.53326438479093
La Gloria Market,Mexican Restaurant,4bf58dd8d48988d1c1941735,4bae5952f964a52032a63be3,48.7911909740317,-122.48544770010287
Shots 2 Go Espresso,Café,4bf58dd8d48988d16d941735,4c4ed5bc92b6a5934d939070,48.833045959472656,-122.48529052734375
El Nopal Mexican Restaurant,Mexican Restaurant,4bf58dd8d48988d1c1941735,4c3a6fdc3849c9289e08c3b1,48.863168,-122.58383899999998
El Rinconcito 2,Mexican Restaurant,4bf58dd8d48988d1c1941735,4b7c4664f964a520fb882fe3,48.762361,-122.442097
Taco Time,Taco Place,4bf58dd8d48988d151941735,4b663033f964a52031182be3,48.73341805773521,-122.46934930705089
The Local Public House,Gastropub,4bf58dd8d48988d155941735,525db34211d2f2ff175351d0,48.75102279918565,-122.47574053923235
Nelson's Market / Marlin's Cafe,Deli / Bodega,4bf58dd8d48988d146941735,4bb2467e42959c74129d202c,48.746696973045296,-122.46799368157048
On Rice Thai Cuisine & Spirit,Thai Restaurant,4bf58dd8d48988d149941735,4b1d3967f964a520400d24e3,48.77294936986676,-122.44438448981818
Mi Mexico,Mexican Restaurant,4bf58dd8d48988d1c1941735,4b57e6f5f964a520bb4528e3,48.78408232554117,-122.48383956157598
Taqueria Tecalitlan,Mexican Restaurant,4bf58dd8d48988d1c1941735,500c890de4b0cefa50328791,48.771465122914265,-122.45823533400923
Giuseppe's Al Porto Ristorante Italiano,Italian Restaurant,4bf58dd8d48988d110941735,4c75b5bed8948cfaa69b68da,48.7553203,-122.4953507
Asian 1,Asian Restaurant,4bf58dd8d48988d142941735,4e3750316284fcf7399b0729,48.79673083199885,-122.48650749519673
Franz Bakery Outlet,Bakery,4bf58dd8d48988d16a941735,4d192b3bbb488cfa99cfbad4,48.815393,-122.483108
Homeskillet,American Restaurant,4bf58dd8d48988d14e941735,4fa59148e4b0d90525c5c26b,48.75800234213437,-122.4680817238461
MOD Pizza,Pizza Place,4bf58dd8d48988d1ca941735,5813b14038fa89c81a8fd5ca,48.77001792,-122.44384513
Jalapeños,Mexican Restaurant,4bf58dd8d48988d1c1941735,4db234e25da3908a46921190,48.77031936099709,-122.44380753281513
Zen Sushi Bar,Sushi Restaurant,4bf58dd8d48988d1d2941735,513b59ace4b06af9258c3d22,48.769995946442556,-122.44890068129979
Keenan's At The Pier,Restaurant,4bf58dd8d48988d1c4941735,513a6a01e4b0334d9b8fd0b9,48.72587288109479,-122.5055423056391
Mount Bakery Fairhaven,Bakery,4bf58dd8d48988d16a941735,4e91defc29c2117fa45ac01b,48.720515,-122.50129299999999
Taco Time NW,Restaurant,4bf58dd8d48988d1c4941735,5b806823da5e56002ce581a6,48.845204024152146,-122.58120830453197
Ovn Wood Fired Pizza,Pizza Place,4bf58dd8d48988d1ca941735,55dd1c19498e47f5e6a0e883,48.721131,-122.504884
Taco Bell,Tex-Mex Restaurant,56aa371ae4b08b9a8d5734ba,5c57365f829b0c002c41096b,48.849174,-122.57332
The Filling Station,Burger Joint,4bf58dd8d48988d16c941735,563d5d67cd1028d37cfd5771,48.721188,-122.50291599999998
Tandoori Bites,Indian Restaurant,4bf58dd8d48988d10f941735,54f6123a498ea9382c0f7870,48.7296873162639,-122.47471867201385
D'anna's Cafe Italiano,Italian Restaurant,4bf58dd8d48988d110941735,4af8f00ef964a5209d1022e3,48.74910942020744,-122.47645832802986
Soy House,Asian Restaurant,4bf58dd8d48988d142941735,523d0d9f11d28dc336b1c6c0,48.75199973211352,-122.48207552977557
Pel Meni,Dumpling Restaurant,4bf58dd8d48988d108941735,4af4d765f964a520ccf621e3,48.74770965220311,-122.47834686422749
pelmeni,Eastern European Restaurant,4bf58dd8d48988d109941735,4f9123cce4b03439a9d265f6,48.73698057396126,-122.485332024354
Rusty Wagon Old Tyme Food,American Restaurant,4bf58dd8d48988d14e941735,4bf980b1508c0f47e05a3f31,48.89352284706836,-122.4429511556551
Horseshoe Cafe & Ranch Room,Café,4bf58dd8d48988d16d941735,457e8a2ef964a5203b3f1fe3,48.74937131836984,-122.47847827821595
Olive Garden,Italian Restaurant,4bf58dd8d48988d110941735,4b55006ff964a52058d727e3,48.79557183999243,-122.48526043461459
La Fiamma Wood Fire Pizza,Pizza Place,4bf58dd8d48988d1ca941735,4aa809b0f964a520e54e20e3,48.74785764373952,-122.47968843474005
Busara Thai Cuisine,Thai Restaurant,4bf58dd8d48988d149941735,4b26af4ef964a5207b7f24e3,48.73064983716389,-122.4717205899279
Daisy Café,Breakfast Spot,4bf58dd8d48988d143941735,4b3f886bf964a52088a825e3,48.751227476345626,-122.47826760601319
Bob's Burgers & Brew,Burger Joint,4bf58dd8d48988d16c941735,4be6f94e2457a5931f5cad15,48.93543004591926,-122.4861763562773
Harris Avenue Cafe,Café,4bf58dd8d48988d16d941735,4a64b88ef964a5208bc61fe3,48.72015725015106,-122.50303836195938
Big Love Juice,Salad Place,4bf58dd8d48988d1bd941735,5b918d7a75dcb7002c8ba30a,48.747207,-122.479081
Tweets,Café,4bf58dd8d48988d16d941735,4b787f7cf964a52055d22ee3,48.5616377493289,-122.4438653208288
Mix,Salad Place,4bf58dd8d48988d1bd941735,5bbe5c669411f2002cf47750,48.750728607177734,-122.48114013671875
The Table by Bellingham Pasta Co,Noodle House,4bf58dd8d48988d1d1941735,4c5a241904f9be9a3d40f160,48.751927688227454,-122.47794760286077
Subway,Sandwich Place,4bf58dd8d48988d1c5941735,4bccb08068f976b02a166383,48.93699012033821,-122.48477127264357
Subway,Sandwich Place,4bf58dd8d48988d1c5941735,4dacae51fa8ca548ba11b8cb,48.96397661765431,-122.44023739856584
Avenue Bread,Sandwich Place,4bf58dd8d48988d1c5941735,57129ce6498eea6299f5030a,48.943149,-122.452932
Subway,Sandwich Place,4bf58dd8d48988d1c5941735,4ff70909e4b0b8fda9fac62f,48.920311426683384,-122.34279392824106
Subway,Sandwich Place,4bf58dd8d48988d1c5941735,4f3acea7e4b0eebd6ce13040,48.84393333271685,-122.28697670978079
Just Philly,Sandwich Place,4bf58dd8d48988d1c5941735,4f8a2508e4b0b1c4b0749223,48.81490953119656,-122.33294564914672
Da Vinci's Classic Subs,Sandwich Place,4bf58dd8d48988d1c5941735,4b6dd88ff964a52027952ce3,48.749768863797485,-122.42490797803156
Subway,Sandwich Place,4bf58dd8d48988d1c5941735,5e137ea9697f0a00086dcb09,48.7152727392302,-122.47666329921651
Subway,Sandwich Place,4bf58dd8d48988d1c5941735,5e141a51342fd40008f697fe,48.738949,-122.486181
SUBWAY,Sandwich Place,4bf58dd8d48988d1c5941735,5085a974e4b02fe709724dfd,48.73383499975266,-122.48577930973894
BelleWood Acres,Market,50be8ee891d4fa8dcc7199a7,4b09d3a2f964a520511e23e3,48.86432296291342,-122.4849059441443
SUBWAY,Sandwich Place,4bf58dd8d48988d1c5941735,4d1113fa6331a09392a65a94,48.744553322186505,-122.45794248225411
SUBWAY,Sandwich Place,4bf58dd8d48988d1c5941735,4b75f711f964a520ae322ee3,48.745381,-122.448486
Jekyll & Hyde,Pizza Place,4bf58dd8d48988d1ca941735,4bedd970767dc9b67f95d3e9,48.77855775189168,-122.48087908677017
Extremes Sports Grill,Sports Bar,4bf58dd8d48988d11d941735,4b57c1c3f964a5207f3f28e3,48.79238616329152,-122.48537137506088
Cap Hansen's,Sandwich Place,4bf58dd8d48988d1c5941735,4b1306f6f964a520ec9223e3,48.74774250851541,-122.47906573759117
Avenue Bread & Deli,Sandwich Place,4bf58dd8d48988d1c5941735,4b143959f964a5208b9f23e3,48.760536465935175,-122.46496305887385
Subway,Sandwich Place,4bf58dd8d48988d1c5941735,5e1408ef8f89f4000839658c,48.8555898171604,-122.48671075885034
SUBWAY,Sandwich Place,4bf58dd8d48988d1c5941735,4bb0e689f964a5203f683ce3,48.788567122814655,-122.51393067361067
Subway Sandwich Shop,Sandwich Place,4bf58dd8d48988d1c5941735,4bb1235df964a520927d3ce3,48.84734428182111,-122.59246900268073
Coconut Kenny's,American Restaurant,4bf58dd8d48988d14e941735,4e38b926b0fb2f7ee8609549,48.8453135982613,-122.5765355911321
Jimmy John's,Sandwich Place,4bf58dd8d48988d1c5941735,4e56ee56e4cd443013225a0a,48.748291565676446,-122.47912022720695
Gandolfo's New York Deli,Sandwich Place,4bf58dd8d48988d1c5941735,4bc21e5f920eb71380ad1b2c,48.80094943615324,-122.48473555720138
Avenue Bread & Café,Sandwich Place,4bf58dd8d48988d1c5941735,4b143931f964a520889f23e3,48.7213107280129,-122.50337851879635
Jimmy John's,Sandwich Place,4bf58dd8d48988d1c5941735,56d5aecc498e83ffa7d0ac8e,48.79568,-122.487815
SUBWAY,Sandwich Place,4bf58dd8d48988d1c5941735,4cf0555812e78eec40965347,48.77507266386693,-122.49607434659163
Pita Pit,Sandwich Place,4bf58dd8d48988d1c5941735,4b2d78b9f964a52061d724e3,48.749041,-122.477795
Web Locker,Sandwich Place,4bf58dd8d48988d1c5941735,4b2d59e4f964a520dfd424e3,48.757587634120036,-122.5029010413585
Bob's Burgers & Brew,American Restaurant,4bf58dd8d48988d14e941735,45545ed9f964a520013d1fe3,48.74880269227921,-122.47833042864883
Port of Subs,Sandwich Place,4bf58dd8d48988d1c5941735,566381fd498eb2bfb01dcebc,48.788455680718,-122.51237040119156
Brewed Awakening,Sandwich Place,4bf58dd8d48988d1c5941735,4e7c9bf9b8f75fe8033122f5,48.73576,-122.469132
SUBWAY,Sandwich Place,4bf58dd8d48988d1c5941735,4b673709f964a520d8412be3,48.75583861585114,-122.46295582514858
Jimmy John's,Sandwich Place,4bf58dd8d48988d1c5941735,5a668cb64940bc6e06b5b9a8,48.770501,-122.443266
Subway Sandwich Shop,Sandwich Place,4bf58dd8d48988d1c5941735,4d7544019a296ea8529160a9,48.7921241033113,-122.48543149982356
Port of Subs,Sandwich Place,4bf58dd8d48988d1c5941735,4babaa10f964a52030be3ae3,48.744259111032854,-122.46093787051757
SUBWAY,Sandwich Place,4bf58dd8d48988d1c5941735,4e8f6b4bb8039b45577f8dd4,48.738993,-122.486352
SUBWAY,Sandwich Place,4bf58dd8d48988d1c5941735,4d87aa3199b78cfa9afffd1f,48.75535218950971,-122.49546245801879
Subway Sandwich Shop,Sandwich Place,4bf58dd8d48988d1c5941735,4e4ddda8bd4101d0d79d13b4,48.785466,-122.489277
SUBWAY,Sandwich Place,4bf58dd8d48988d1c5941735,4e4c6d5518a822288dd30345,48.773775,-122.456993
SUBWAY,Sandwich Place,4bf58dd8d48988d1c5941735,517844dbe4b0cf13a7e4c1d6,48.77064055468737,-122.44947246139333
Port of Subs,Sandwich Place,4bf58dd8d48988d1c5941735,4c535779fd2ea593a1a24428,48.774367,-122.46251399999998
Subway,Sandwich Place,4bf58dd8d48988d1c5941735,5e13a9907c8f9b0008801bb7,48.74914492865967,-122.47868665610855
Subway,Sandwich Place,4bf58dd8d48988d1c5941735,5e1413e60e161a0008657c34,48.84855344376541,-122.57188796128196
SUBWAY,Sandwich Place,4bf58dd8d48988d1c5941735,4a9eea9af964a520c63b20e3,48.73529484482819,-122.46934478153906
Gypsies & Ginger Snaps,Thrift / Vintage Store,4bf58dd8d48988d101951735,5352f41c498e1a95d631a594,48.75016399652841,-122.47984523717372
Port of Subs,Sandwich Place,4bf58dd8d48988d1c5941735,4b884b6df964a52042ed31e3,48.75160659108046,-122.47904400294385
Ivar's Seafood Bar,Seafood Restaurant,4bf58dd8d48988d1ce941735,4ba52edcf964a520d1e838e3,48.78520009244277,-122.48922397929006
El Gitano,Mexican Restaurant,4bf58dd8d48988d1c1941735,4b6e11a3f964a5201da82ce3,48.77361,-122.461716
Anthony's,Seafood Restaurant,4bf58dd8d48988d1ce941735,4afb67a2f964a520a91d22e3,48.75618521943682,-122.49461903081807
Chuckanut Manor Seafood & Grill,Seafood Restaurant,4bf58dd8d48988d1ce941735,4bc1454aabf49521ffe9c093,48.60202225131172,-122.42727022804962
Mambo Italiano Cafe,Italian Restaurant,4bf58dd8d48988d110941735,4b3059f6f964a5201cf924e3,48.71988338066933,-122.50213413926679
Taylor Shellfish Farms,Farm,4bf58dd8d48988d15b941735,4b9ab1f6f964a520ddcd35e3,48.6104628830583,-122.43722494872776
Rock and Rye,Seafood Restaurant,4bf58dd8d48988d1ce941735,53a0e3d7498edb50d357ef1d,48.74717891265393,-122.4792928269742
Jo Fish,Seafood Restaurant,4bf58dd8d48988d1ce941735,52c320f9498e0d5ae824237d,48.943484844457124,-122.45159756621572
Beach Store Cafe,Seafood Restaurant,4bf58dd8d48988d1ce941735,4ba59928f964a520621539e3,48.72160668254761,-122.68324368501722
Fairhaven Fish and Chips,Seafood Restaurant,4bf58dd8d48988d1ce941735,4a6389ccf964a52043c51fe3,48.7199914254728,-122.50358273354809
Captain Bellingham Fried Seafood And Steak,Seafood Restaurant,4bf58dd8d48988d1ce941735,5ae3e86286bc49002cf3c1e0,48.738833,-122.469518
Rock and Rye Oyster House,Seafood Restaurant,4bf58dd8d48988d1ce941735,54a0d4ac498ef4e37a14bf03,48.74326775841042,-122.48506164869274
Blau Oyster,Seafood Restaurant,4bf58dd8d48988d1ce941735,4e18ca2ed22d512258874454,48.57626,-122.504608
Harborside Bistro & Lounge,Seafood Restaurant,4bf58dd8d48988d1ce941735,4b9ea694f964a520d5f636e3,48.754162,-122.49699199999999
Oyster Bar at Bayou on Bay,Seafood Restaurant,4bf58dd8d48988d1ce941735,51c35fea2fc69b67f4b236c0,48.75117874145508,-122.48072052001953
Fred Meyer Fuel Center,Snack Place,4bf58dd8d48988d1c7941735,4d2dae84679e6dcbfb82b195,48.7446359,-122.4631888
Fred Meyer Gas Station,Snack Place,4bf58dd8d48988d1c7941735,4c8178b2dc018cfaa12fc66c,48.789092670245324,-122.5141787672496
Boundary Bay Brewery,Brewery,50327c8591d4c4b30a586d5d,485bbcbcf964a520c6501fe3,48.74756183971459,-122.48084205917995
Robeks Fresh Juices & Smoothies,Smoothie Shop,52f2ab2ebcbc57f1066b8b41,4babaac1f964a5206ebe3ae3,48.771801,-122.445052
Menchie's,Frozen Yogurt Shop,512e7cae91d4cbb4e5efe0af,4f934b71e4b0f888dd1b12ad,48.7443283277604,-122.46108919951043
Auntie Anne's,Snack Place,4bf58dd8d48988d1c7941735,4c6d7d20e6b7b1f7d4e2a98e,48.785994,-122.49089
Haggard Hideaway,Snack Place,4bf58dd8d48988d1c7941735,4e00f4fb315175a7f3fa176d,48.737243317790806,-122.48593926429749
Fred Meyer Fuel Center,Snack Place,4bf58dd8d48988d1c7941735,59243e9bf62e094f584ccb10,48.78918315,-122.5142614
Greene's Corner,Sandwich Place,4bf58dd8d48988d1c5941735,4bae30b3f964a520d88f3be3,48.83346428150027,-122.54110438497482
Shari's Cafe and Pies,American Restaurant,4bf58dd8d48988d14e941735,4b9d17b8f964a520e88e36e3,48.785071,-122.485804
Pho 99,Vietnamese Restaurant,4bf58dd8d48988d14a941735,4b50f413f964a520683a27e3,48.73400510802307,-122.47095222294632
Hawaii BBQ & Noodle House,Asian Restaurant,4bf58dd8d48988d142941735,4cd7556c886cb60c44cc8e89,48.77267164297955,-122.45799398381382
Pho Ly,Vietnamese Restaurant,4bf58dd8d48988d14a941735,4b50f464f964a520703a27e3,48.791031843169634,-122.49069904758744
Caffe Adagio,Café,4bf58dd8d48988d16d941735,4b16a5aaf964a52060bb23e3,48.75106684061465,-122.47545311346784
Old World Deli,Sandwich Place,4bf58dd8d48988d1c5941735,4b2ff36df964a52035f324e3,48.747877934677504,-122.47782143894152
Xing's Panda Palace,Chinese Restaurant,4bf58dd8d48988d145941735,4b7f5165f964a520302730e3,48.773484538770454,-122.46073917007614
Old Town Cafe,Breakfast Spot,4bf58dd8d48988d143941735,4aa16fcff964a520874020e3,48.75170954077184,-122.4819791124117
Mount Bakery Cafe,Café,4bf58dd8d48988d16d941735,4b8046d1f964a520576330e3,48.75185857351619,-122.48010294129747
Colophon Café,American Restaurant,4bf58dd8d48988d14e941735,4a8857dcf964a520f30520e3,48.720506915137605,-122.50399592220384
Sandwich Odyssey,Sandwich Place,4bf58dd8d48988d1c5941735,4b60a56bf964a5201bf229e3,48.756888497536714,-122.47546760645729
Avenue Bread & Deli,Sandwich Place,4bf58dd8d48988d1c5941735,4b143908f964a520859f23e3,48.74961903566793,-122.47764697219888
Best Chopsticks,Chinese Restaurant,4bf58dd8d48988d145941735,4b7b5517f964a520bc5e2fe3,48.75277482272291,-122.4768817617283
Brandywine Kitchen,Restaurant,4bf58dd8d48988d1c4941735,4e2a146b6284b96d7b7b0c39,48.75105331584673,-122.47963571409429
New Peking Restaurant,Chinese Restaurant,4bf58dd8d48988d145941735,4bb6991f941ad13a07b91fe3,48.740078000000004,-122.47083400000001
Magdalena Creperie,Breakfast Spot,4bf58dd8d48988d143941735,4b4118cff964a52010c125e3,48.72063766708793,-122.50468511342507
Kowloon Inn,Restaurant,4bf58dd8d48988d1c4941735,4ca3d9eff832a1cd9a4fa1e5,48.84584045410156,-122.5937728881836
Supreme Bean Coffee Cafe,Café,4bf58dd8d48988d16d941735,4bc50a960191c9b67c0debb1,48.76029707010715,-122.48803967499617
The Oyster Bar,Seafood Restaurant,4bf58dd8d48988d1ce941735,4b6c571cf964a520f9312ce3,48.61041522105177,-122.43509185971746
StrEAT Food @ Kulshan Brewing Company,Food Truck,4bf58dd8d48988d1cb941735,4f74f89fe4b08a9c8547d8ae,48.76019099148811,-122.46468633537582
twofifty|flora,Soup Place,4bf58dd8d48988d1dd931735,5183f28dabd8b74917e1218f,48.753076483997084,-122.47936248779295
Chihuahua Family Mexican Restaurant,Mexican Restaurant,4bf58dd8d48988d1c1941735,4b256bccf964a520b47124e3,48.84759537624565,-122.59179624182678
Flats,Tapas Restaurant,4bf58dd8d48988d1db931735,4ccb20cc7c2ff04d158a907e,48.719883,-122.503107
Blue Mountain Grill,Steakhouse,4bf58dd8d48988d1cc941735,4c9d5d9d46978cfa233c977f,48.677642123269294,-122.2019257320411
Anthony's Hearthfire Grill,Steakhouse,4bf58dd8d48988d1cc941735,4afb68d8f964a520ae1d22e3,48.75479269071259,-122.49734288687854
"The Steakhouse - Silver Reef Hotel, Casino, Spa",Steakhouse,4bf58dd8d48988d1cc941735,5208372f11d219f15a842b97,48.817114698466185,-122.62543332353542
Herb Neimann's Steak House,Steakhouse,4bf58dd8d48988d1cc941735,4b9d5b4ff964a52070a636e3,48.919892,-122.344939
Steakhouse 9,Steakhouse,4bf58dd8d48988d1cc941735,519196bd498e04fbdbcc189b,48.96033036522258,-122.45045667477333
Sadighi's Restaurant,Steakhouse,4bf58dd8d48988d1cc941735,4ccb86b7ba0a54811e563759,48.74517467381608,-122.46278643608093
Dirty Dan Harris' Restaurant,Steakhouse,4bf58dd8d48988d1cc941735,4b7a1ffef964a520d1232fe3,48.7203037366544,-122.50311417042333
The Nuthouse Grill,Steakhouse,4bf58dd8d48988d1cc941735,4b12e015f964a520e58f23e3,48.9631537180958,-122.44027934584221
Old Edison Inn,Steakhouse,4bf58dd8d48988d1cc941735,4b7cae4ef964a520efa02fe3,48.56133390175637,-122.44337239621322
The Steak House,Steakhouse,4bf58dd8d48988d1cc941735,521941b72fc6ecc1c03a4c5a,48.8184700012207,-122.62760925292969
Acme Diner,Diner,4bf58dd8d48988d147941735,4fcfd65ee4b046afa70750be,48.71635457319278,-122.20366887300334
Fiamma Burger,Burger Joint,4bf58dd8d48988d16c941735,4b54bd32f964a520cfc927e3,48.74950707430937,-122.47784058157168
Spice Hut,Miscellaneous Shop,4bf58dd8d48988d1ff941735,4babad39f964a5206ebf3ae3,48.794897999999996,-122.487147
Saku Tea Bar,Tea Room,4bf58dd8d48988d1dc931735,57780e5d498ef28a7b72834b,48.743784,-122.483742
CreativiTea,Arts & Crafts Store,4bf58dd8d48988d127951735,4b8c2e07f964a5208ec232e3,48.71957793677006,-122.50371473285529
Abbey Garden Tea Room,Tea Room,4bf58dd8d48988d1dc931735,4b538c3df964a520a6a127e3,48.719813,-122.50370500000001
WFM Coffee Bar,Tea Room,4bf58dd8d48988d1dc931735,58a5d139ef787f2170271f9c,48.7449270588235,-122.462027647059
The Wild Oat Bakery & Cafe,Vegetarian / Vegan Restaurant,4bf58dd8d48988d1d3941735,5b6726b4ff0306002c0b6688,48.749923,-122.478909
Youngstock's Country Farms,Vegetarian / Vegan Restaurant,4bf58dd8d48988d1d3941735,4bb12cadf964a520bb803ce3,48.76032180978097,-122.46525268910376
Electric Beet Juice Co.,Vegetarian / Vegan Restaurant,4bf58dd8d48988d1d3941735,548bb0e0498edadd0e9677d1,48.751259,-122.476628
Fairhaven Farmers Market,Vegetarian / Vegan Restaurant,4bf58dd8d48988d1d3941735,4c63009dfa7bc92898810f27,48.719881,-122.502848
Buffalo Wild Wings,Wings Joint,4bf58dd8d48988d14c941735,5454160e498e5c511007c58d,48.784926,-122.4898319
Slo-Pitch Sports Grill,Casino,4bf58dd8d48988d17c941735,4b5bc63ff964a520681529e3,48.78115994558254,-122.48555036016145
Red Robin Gourmet Burgers and Brews,Burger Joint,4bf58dd8d48988d16c941735,4ab55fd5f964a520447420e3,48.78467058,-122.4869205
Applebee's Grill + Bar,American Restaurant,4bf58dd8d48988d14e941735,4b47db70f964a520c34126e3,48.77203197,-122.4620777
Scotty Browns,Bar,4bf58dd8d48988d116941735,4abd75ccf964a520748a20e3,48.771426748195836,-122.44389016052803
Round Table Clubhouse,Wings Joint,4bf58dd8d48988d14c941735,4bbb79dae6e7b713751bf879,48.77315684911825,-122.46060085933831
Bob's Burgers & Brew,American Restaurant,4bf58dd8d48988d14e941735,4650a89bf964a520d7461fe3,48.77077011277198,-122.44383833014345
Cedar's Restaurant & Lounge,Bar,4bf58dd8d48988d116941735,4aae9cbbf964a5209c6220e3,48.84643091566297,-122.59116402739762
Bayou on Bay,Cajun / Creole Restaurant,4bf58dd8d48988d17a941735,4b6ce8eaf964a520325d2ce3,48.751263840513126,-122.48103702000954
Coconut Kenny's,Pizza Place,4bf58dd8d48988d1ca941735,4b928d77f964a520a40334e3,48.75967233874782,-122.46480371287674
The Grand Avenue Alehouse,Bar,4bf58dd8d48988d116941735,4b2acfc3f964a5201cb024e3,48.75253102809074,-122.47993253111282
Outlaw Saloon,Bar,4bf58dd8d48988d116941735,4e1011b8922ec672352e5c77,48.84650038000894,-122.59114118308534
Longhorn Saloon & Grill,Bar,4bf58dd8d48988d116941735,4ba02720f964a520055e37e3,48.56236562384592,-122.4437542241611
Boston's Restaurant & Sports Bar,Pizza Place,4bf58dd8d48988d1ca941735,4aaf075ef964a520f96320e3,48.784185294372215,-122.48865365982056
Jake's Western Grill,BBQ Joint,4bf58dd8d48988d1df931735,4bb7fe5198c7ef3b77b23002,48.93440037574809,-122.48465180397034
