name,category,category_id,venue_id,lat,long
Arby's,American Restaurant,4bf58dd8d48988d14e941735,4bad3843f964a520a73a3be3,43.4818991436501,-111.991484954969
Arctic Circle,American Restaurant,4bf58dd8d48988d14e941735,4c7dd172724976b0a158a40a,43.49016466569141,-112.05194844252723
Arby's,American Restaurant,4bf58dd8d48988d14e941735,4c892c53da5da1cd6e463ae9,43.4963108990367,-112.060636326687
O'Brady's Restaurant,American Restaurant,4bf58dd8d48988d14e941735,523e0ccc498e4cb209942441,43.497192,-112.055848
Babe's Bakery?,American Restaurant,4bf58dd8d48988d14e941735,4ce6bd54fe90a35dcdf8370e,43.480548416666664,-111.99172215
The Grille,American Restaurant,4bf58dd8d48988d14e941735,57544328498e12f18fb6c286,43.488794,-111.982131
channing square,American Restaurant,4bf58dd8d48988d14e941735,53b451d4498e29c5f6bb825b,43.478638,-111.990449
Hard Hat Woodfire Grill,American Restaurant,4bf58dd8d48988d14e941735,4b8acf90f964a520988232e3,43.483283,-112.056715
"MacKenzie River Pizza, Grill & Pub",New American Restaurant,4bf58dd8d48988d157941735,5bec673ea795bd3242d50ca9,43.4846508,-112.0504809
Panda Express,Chinese Restaurant,4bf58dd8d48988d145941735,4c2f83c97cc0c9b6a7daeb9a,43.487308015888246,-111.98357661051692
Evergreen Chinese Buffet,Chinese Restaurant,4bf58dd8d48988d145941735,4d13ff8c1356a093066cc582,43.4828169887795,-111.9897492703927
Hong Kong,Chinese Restaurant,4bf58dd8d48988d145941735,4bdc9e1bccf52d7f5c96786d,43.497045,-112.062226
Main Moon,Chinese Restaurant,4bf58dd8d48988d145941735,52374c8111d211f594276a51,43.4815064863923,-111.96760042537186
China King,Chinese Restaurant,4bf58dd8d48988d145941735,4f3295ed19836c91c7e63408,43.382305,-112.12269
Wasabi,Japanese Restaurant,4bf58dd8d48988d111941735,4d640f94bd253704220dd5c5,43.49473883245768,-112.04559614204672
Black hole,Sushi Restaurant,4bf58dd8d48988d1d2941735,4eed9ff3b8f76a24a566c2a9,43.44637,-112.04313
Sushi Luck,Sushi Restaurant,4bf58dd8d48988d1d2941735,4ed0f2b56c2510ace18cb948,43.3967294,-112.1546013
Kotako,Korean Restaurant,4bf58dd8d48988d113941735,5682d05e498e470cc509d705,43.466256,-111.979824
Yummy House,Asian Restaurant,4bf58dd8d48988d142941735,4d962b90647d8cfafa09b33d,43.49176582581148,-112.04094235448852
New Star Restaurant,Asian Restaurant,4bf58dd8d48988d142941735,4dc43ac445dd264552519137,43.682359999999996,-111.909553
Chinese Garden Restaurant,Chinese Restaurant,4bf58dd8d48988d145941735,4c982d806ffe8cfa0157fb2f,43.48104910000001,-112.0013977
Noodles & Company,Noodle House,4bf58dd8d48988d1d1941735,552f857d498ea6903bed6ebb,43.48043325641466,-111.98500782251358
Thai Kitchen,Thai Restaurant,4bf58dd8d48988d149941735,512037a6e4b0a1ec7f4da7b7,43.482096903817904,-112.01862497239057
Great Hunan,Chinese Restaurant,4bf58dd8d48988d145941735,4c3f5149da3dc928e9b4c5b9,43.473780597305264,-111.98271083772683
Thai 2,Thai Restaurant,4bf58dd8d48988d149941735,4ba512c4f964a52045d938e3,43.48207673,-112.018676
Dee Kitchen,Thai Restaurant,4bf58dd8d48988d149941735,5b32f7e9a795bd0039847cf2,43.47039,-111.985
Hot Spring Pho,Vietnamese Restaurant,4bf58dd8d48988d14a941735,5ee91292300a9500085bc42d,43.491933,-112.039894
Aussie,Australian Restaurant,4bf58dd8d48988d169941735,4ef72fb6f9ab2e6681cf97c0,43.44649176384207,-112.04311710161782
Rocky Mountain Outdoor Living LLC,Construction & Landscaping,5454144b498ec1f095bff2f2,58d5c64926032752d73cc05d,43.505891,-112.064793
Grandpa's Southern BarBQ,BBQ Joint,4bf58dd8d48988d1df931735,511d452ce4b0957877d0394c,43.49375869444204,-112.0386913661508
Bistro,Bagel Shop,4bf58dd8d48988d179941735,4f01f02c6c25c5ce832c27ba,43.493010798839634,-112.05204919519076
Carstens' Bakery,Bakery,4bf58dd8d48988d16a941735,4f32b57319836c91c7f1f9ef,43.489107,-112.042255
The Sugar Shell,Bakery,4bf58dd8d48988d16a941735,57ecca37498e8a33c20a7d5b,43.5251024,-111.9911577
Deseret Book,Bakery,4bf58dd8d48988d16a941735,4e3dc54218a83d5b28497710,43.469932556152344,-111.98380279541016
Pretzelmaker,Bakery,4bf58dd8d48988d16a941735,4f43af3819834bc91f583e23,43.48206,-111.986155
Franz Bakery Depot-Idaho Falls,Bakery,4bf58dd8d48988d16a941735,5194edc4498e8fb151086507,43.51192855834961,-112.02798461914062
Krispy Kream,Bakery,4bf58dd8d48988d16a941735,4ed0f23861af476c092e75a5,43.42338784097094,-112.16399766324378
Alchemy Bistro & Catering,Bistro,52e81612bcbc57f1066b79f1,54838f63498e3ac9d10e586e,43.49271774291992,-112.04154205322266
Chef Shane's Perspective,Bistro,52e81612bcbc57f1066b79f1,560b3534498e1cd1c449c398,43.468912,-111.985164
Happy Chinese Restaurant,Chinese Restaurant,4bf58dd8d48988d145941735,4c23a57f905a0f479b7a5e60,43.493183,-112.038472
The Cellar,Wine Shop,4bf58dd8d48988d119951735,4b6501c3f964a5200adf2ae3,43.48152904493162,-111.96388625032603
Ninja's Lunch Box,Japanese Restaurant,4bf58dd8d48988d111941735,53c0960a498e00f69ce6532e,43.48298645019531,-112.00009155273438
Daylight donuts,Bakery,4bf58dd8d48988d16a941735,50098ddfe4b04413bf234aac,43.482624773785396,-112.01193840202467
Golden China,Chinese Restaurant,4bf58dd8d48988d145941735,520a8a1411d295116494280b,43.511988,-112.015334
Wendy’s,Burger Joint,4bf58dd8d48988d16c941735,4bfec3dac30a2d7f0df80f1d,43.507555,-112.022979
Blue Wave,Bar,4bf58dd8d48988d116941735,4c5219c7250dd13a242a4b7e,43.47934482397182,-112.04356062048468
SONIC Drive In,Burger Joint,4bf58dd8d48988d16c941735,4c081652009a0f473e8ce5bf,43.4826527,-111.97823
Wendy’s,Burger Joint,4bf58dd8d48988d16c941735,4c3378f5452620a14da7230f,43.495597231787436,-112.05190565858175
Wendy’s,Burger Joint,4bf58dd8d48988d16c941735,4bfecd98c30a2d7f5a08101d,43.46667465287981,-111.98345406912267
SONIC Drive In,Burger Joint,4bf58dd8d48988d16c941735,4c181d284ff90f4721fe0d49,43.483804881083245,-112.04501963834322
Eirmc cafeteria,Cafeteria,4bf58dd8d48988d128941735,511a8c52e4b082c0875e4df1,43.46995141624612,-111.99153551807926
Kool Beanz,Café,4bf58dd8d48988d16d941735,55a118dd498ef0726663c41b,43.48363494873047,-112.051513671875
1 Fine Cafe,Café,4bf58dd8d48988d16d941735,5d1cbdc52f2fcc00235c4eb7,43.480491,-111.991733
Broulim's,Deli / Bodega,4bf58dd8d48988d146941735,4c353cc53ffc9521421c91f5,43.673439025878906,-111.91365814208984
Walmart Bakery,Deli / Bodega,4bf58dd8d48988d146941735,59936c36fd16bb7d57a72b79,43.4911501,-112.0507997
Walmart Bakery,Deli / Bodega,4bf58dd8d48988d146941735,5992cb0ffdb9a718d8b2f939,43.48681646,-111.9844349
Black Bear Diner,Dessert Shop,4bf58dd8d48988d1d0941735,589758890a3d54567e00fce4,43.481842,-112.00204
Motel West,Motel,4bf58dd8d48988d1fb931735,4c84618547cc224b7261989f,43.497038,-112.059947
Kneaders,Bakery,4bf58dd8d48988d16a941735,57eea44b498eb99ecb632a68,43.46549606323242,-111.98346710205078
Geraldine's Bake Shop & Deli,Bakery,4bf58dd8d48988d16a941735,4c6de3c99b7cef3b96baf02a,43.48144571012465,-111.97085431216009
Panera Bread,Bakery,4bf58dd8d48988d16a941735,573a042c498e9451c5ae4cde,43.4722008,-111.9852539
Mrs. Powells,Bakery,4bf58dd8d48988d16a941735,4ca52911a6e08cfa69d26e94,43.481122220060975,-111.98269844055176
Kiwi Loco,Dessert Shop,4bf58dd8d48988d1d0941735,4d03fb2637036dcb59cd0dfb,43.46871376666667,-111.9849967
Caramel Tree,Bakery,4bf58dd8d48988d16a941735,51255a38e4b02683337b06e9,43.672157287597656,-111.91343688964844
Love At First Bite,Cupcake Shop,4bf58dd8d48988d1bc941735,4d9cf6c283f36ea8e2c5ad94,43.4839748619495,-112.05127983577098
Cupcake Factory,Cupcake Shop,4bf58dd8d48988d1bc941735,4da4abd4b521224bfbab37ee,43.473756,-111.982697
Orange Leaf Frozen Yogurt,Frozen Yogurt Shop,512e7cae91d4cbb4e5efe0af,4d12ac74f898b1f7ecbcda81,43.47239,-111.983279
Orange Leaf Frozen Yogurt,Frozen Yogurt Shop,512e7cae91d4cbb4e5efe0af,5ccca5077b4669002bb8a1fa,43.46749,-111.985092
Reed's Dairy Inc.,Ice Cream Shop,4bf58dd8d48988d1c9941735,4c3f6673cc410f47c01da861,43.496944958026056,-112.084157834653
Dairy Queen,Ice Cream Shop,4bf58dd8d48988d1c9941735,4b651254f964a520b7e22ae3,43.4819677,-112.0028812
Baskin-Robbins,Ice Cream Shop,4bf58dd8d48988d1c9941735,4c0dacdb7189c9289572d7b6,43.48271503911612,-112.01032107755655
Reed's Dairy,Ice Cream Shop,4bf58dd8d48988d1c9941735,559836e4498eb21ce0332217,43.468592468527795,-111.98385093952746
Dairy Queen Grill & Chill,Ice Cream Shop,4bf58dd8d48988d1c9941735,4fad9b22e4b0fd09a8e182c8,43.673795,-111.913625
Cold Stone Creamery,Ice Cream Shop,4bf58dd8d48988d1c9941735,4e81282f722ec779f97e4fec,43.479125,-111.984009
Kiwi Loco,Ice Cream Shop,4bf58dd8d48988d1c9941735,5095c453e4b08c7bebecd6fd,43.495002,-112.050503
Idaho Falls Black Bear Diner,Diner,4bf58dd8d48988d147941735,58b41acd34935540dc5c8b74,43.48208439897604,-112.003192306438
Okies Burgers and Chili,Diner,4bf58dd8d48988d147941735,4f32a3ed19836c91c7eb7078,43.48257827758789,-111.99059295654297
Bakers Dozen,Donut Shop,4bf58dd8d48988d148941735,4de8709e88774aa92c9fbc3f,43.492437526575465,-111.99873397308554
Sugared Moose Mini Donuts,Donut Shop,4bf58dd8d48988d148941735,5059279f704312c5329d1cd9,43.4820563955073,-111.97497367858887
The Dogfather,Dutch Restaurant,5744ccdfe4b0c0459246b4d0,5e993b2ca987580008a89f0f,43.491942200259516,-112.04176068305969
Pupusa Bus,Food Truck,4bf58dd8d48988d1cb941735,4ec192708b81127c0bf3e2ce,43.497183,-112.019377
Tacos Izcalli,Food Truck,4bf58dd8d48988d1cb941735,518d3d22498e5f6932d16e39,43.494088,-112.047691
Taco truck,Food Truck,4bf58dd8d48988d1cb941735,4ef8db82469012b8c22bf998,43.47941210461842,-112.02054099441636
Jack in the Box,Fried Chicken Joint,4d4ae6fc7a7b7dea34424761,4c0464109a7920a18f45d179,43.497111170247656,-112.05684810876846
Popeyes Louisiana Kitchen,Fried Chicken Joint,4d4ae6fc7a7b7dea34424761,5690b7ab498ed86bf531cba6,43.46757448981798,-111.98205849986955
Liquor Store,German Restaurant,4bf58dd8d48988d10d941735,4ecd71646da162f1bb20561d,43.37386,-112.12953
Sophias,German Restaurant,4bf58dd8d48988d10d941735,50e22976e4b0eb1ff605ec3d,43.44633,-112.04312
Schnitzel,German Restaurant,4bf58dd8d48988d10d941735,50e3832ae4b053b50ab0fb74,43.44633,-112.04312
Tom's Gyros & Burgers #2,Greek Restaurant,4bf58dd8d48988d10e941735,4cbc845f4352a1cd0dbd9ef5,43.50166320800781,-112.0243148803711
Greece,Greek Restaurant,4bf58dd8d48988d10e941735,4ef730280e61a0846d46f1ea,43.44628,-112.04309
sno shack,Dessert Shop,4bf58dd8d48988d1d0941735,4fbabc64e4b07562e52e6141,43.47342279094387,-111.97913785050102
Cardamom,Indian Restaurant,4bf58dd8d48988d10f941735,5b8993578fb09e002c5066c7,43.493654,-112.040123
India,Indian Restaurant,4bf58dd8d48988d10f941735,4ef7306be30093066fedade2,43.44629,-112.04309
Habbi Hut,Indian Restaurant,4bf58dd8d48988d10f941735,50e1f392e4b01e17f8f3103e,43.44633,-112.04312
Cardamom,Indian Restaurant,4bf58dd8d48988d10f941735,5e692a127e5b020008859560,43.4937061,-112.0401503
Naam Curry,Indian Restaurant,4bf58dd8d48988d10f941735,50e1b594e4b0f21684ad9605,43.44632970251548,-112.04312285391478
The Great Bambino,Italian Restaurant,4bf58dd8d48988d110941735,4c65de92e1da1b8dfc9599c3,43.68217955662485,-111.91031601516806
Johnny Carino's,Italian Restaurant,4bf58dd8d48988d110941735,4b8c780bf964a5204ed232e3,43.47243,-111.98387
Papa Murphy's | Take 'N' Bake Pizza,Italian Restaurant,4bf58dd8d48988d110941735,5e84bced2d792700088665df,43.67185002279472,-111.91163038478778
The Great Bambino Italian Restaurant,Italian Restaurant,4bf58dd8d48988d110941735,5ccc407b12c8f0002c09d3a6,43.68148,-111.91378
Jamba Juice,Juice Bar,4bf58dd8d48988d112941735,559af89f498e4b1a8f77a16f,43.492813,-112.048348
Joy of Juicing,Juice Bar,4bf58dd8d48988d112941735,509e86c7e4b03f3cc21b32d2,43.493559327956156,-111.98775590466566
Frasures - Coffee & Smoothies,Juice Bar,4bf58dd8d48988d112941735,5d3fada8e74b350008a32a3e,43.520944,-112.023825
Planet Smoothie 19251,Juice Bar,4bf58dd8d48988d112941735,5da7367da5ea470007af7abe,43.482516,-111.982913
Lizana's House,Empanada Restaurant,52939a8c3cf9994f4e043a35,55f32e3b498e81aa215f1b1e,43.4794225174759,-112.03402860112192
Brazil,Brazilian Restaurant,4bf58dd8d48988d16b941735,4ef72f42775b54cdb4463b1b,43.44627,-112.04315
Jamba Juice,Juice Bar,4bf58dd8d48988d112941735,4baa7d4df964a5207d6e3ae3,43.48012834,-111.9881518
Taco Bell,Mexican Restaurant,4bf58dd8d48988d1c1941735,4c6c17b7d0869521d46b03ea,43.47297443296255,-111.98502069815609
Fiesta Ole,Mexican Restaurant,4bf58dd8d48988d1c1941735,4f35b224e4b05324674d38c3,43.496643150790845,-112.02489244033467
Cafe Sabor,Mexican Restaurant,4bf58dd8d48988d1c1941735,51ba323c498e64921b923da2,43.47413318299957,-111.98272517020675
El Jaliciense #3,Mexican Restaurant,4bf58dd8d48988d1c1941735,518aa466498e6a622ce85792,43.37694549560547,-112.12744140625
Ketchum Burrito,Mexican Restaurant,4bf58dd8d48988d1c1941735,5cae38c112c8f0002c132d9b,43.47021,-111.985011
Puerto Vallarta,Mexican Restaurant,4bf58dd8d48988d1c1941735,4c3f4d02ff711b8d24b60e05,43.4808864,-112.0168654
Fiesta Olè,Mexican Restaurant,4bf58dd8d48988d1c1941735,4b7f75aff964a520bd2f30e3,43.482009687078026,-111.99166774749756
Restaurant Taqueria,Mexican Restaurant,4bf58dd8d48988d1c1941735,5253082e11d2d976747dc2df,43.498959,-112.03073
El Rinconcito,Mexican Restaurant,4bf58dd8d48988d1c1941735,5997888bcf72a014e4aa505f,43.510845,-112.0066
The Cocoa Bean,Cupcake Shop,4bf58dd8d48988d1bc941735,4cf00a4128abb60cfd15c609,43.474615964002425,-111.98309582373406
Agave Grill,Mexican Restaurant,4bf58dd8d48988d1c1941735,52af73f111d2780cfebda63b,43.489007764080235,-111.98237657546997
Jalisco's Mexican Restaurant No. 2,Mexican Restaurant,4bf58dd8d48988d1c1941735,5399fd0f498eda0a5f83fd16,43.49376350273014,-112.04522609710693
Tropical Paradise,Mexican Restaurant,4bf58dd8d48988d1c1941735,57c9eb43498ec742dd4ef65e,43.49385070800781,-112.04754638671875
Sal's Pupuseria,Mexican Restaurant,4bf58dd8d48988d1c1941735,57ca2885498ea577c2752b50,43.493868,-112.047546
Taco John's,Mexican Restaurant,4bf58dd8d48988d1c1941735,4bf4095994af2d7ff9153a72,43.482017517089844,-111.9923324584961
Costa Vida,Mexican Restaurant,4bf58dd8d48988d1c1941735,4c12c827a9c220a178a6549d,43.4674136,-111.980801
Los Adelbertos,Mexican Restaurant,4bf58dd8d48988d1c1941735,4d54821bc6edf04d9a70baa2,43.48203337,-112.01610902
Fiesta Ole,Mexican Restaurant,4bf58dd8d48988d1c1941735,514cc0aae4b0cbb5ebd10fa1,43.67055997824222,-111.91518795042266
Sol Rio,Mexican Restaurant,4bf58dd8d48988d1c1941735,4c71a33a13228cfa6d222965,43.47400013179346,-111.98272195505427
Fiesta Ole,Mexican Restaurant,4bf58dd8d48988d1c1941735,4d1ce5bac17ff04d31a1ca41,43.4959427668354,-112.06396937370299
Sweeto Burrito,Burrito Place,4bf58dd8d48988d153941735,5aecea5435d3fc002c6a2aad,43.48203148425447,-111.9923061132431
Sweeto Burrito,Burrito Place,4bf58dd8d48988d153941735,50dcfa51e4b05736e24e99e7,43.468376545911035,-111.98399609970292
Plum Loco,Mexican Restaurant,4bf58dd8d48988d1c1941735,4ba177f2f964a520a3b937e3,43.48934414,-112.04173922538757
"Tacos "" El Primo """,Taco Place,4bf58dd8d48988d151941735,58ffa4db35811b5d2edb9202,43.38692092895508,-112.1201400756836
Leo's Place,Pizza Place,4bf58dd8d48988d1ca941735,4b80823df964a5209f7830e3,43.496485,-112.022547
Domino's Pizza,Pizza Place,4bf58dd8d48988d1ca941735,57626beb498ed9b89c2f44e4,43.67189930485931,-111.91635936498642
Pizza Hut,Pizza Place,4bf58dd8d48988d1ca941735,4c6000323a3703bb6119e406,43.481906539168826,-111.98892787098885
Domino's Pizza,Pizza Place,4bf58dd8d48988d1ca941735,5b0652802f97ec002c05488f,43.389020185971575,-112.11829908465575
Rizo's Pizza,Pizza Place,4bf58dd8d48988d1ca941735,56e9d686498efa2ec9a3d42b,43.47476944395757,-111.98237657546997
Domino's Pizza,Pizza Place,4bf58dd8d48988d1ca941735,4b86cd0df964a520449e31e3,43.483219146728516,-111.99004364013672
Mr Pizza,Pizza Place,4bf58dd8d48988d1ca941735,4f3230ff19836c91c7bf20f8,43.380271,-112.124593
Craigo's Pizza,Pizza Place,4bf58dd8d48988d1ca941735,4f32455719836c91c7c723da,43.373238,-112.12962
Lucy's New York Style Pizzeria,Pizza Place,4bf58dd8d48988d1ca941735,4bc76d0d2f94d13a82e7117f,43.51163786240277,-112.0178358651643
Pizza Hut,Restaurant,4bf58dd8d48988d1c4941735,4c6000ac3a3703bb011ae406,43.49947806640458,-112.00187355279922
Los Albertos,Mexican Restaurant,4bf58dd8d48988d1c1941735,4ed936594901c8be1c1c33ba,43.50937199723809,-112.02044110689425
Godfather's Pizza,Pizza Place,4bf58dd8d48988d1ca941735,4cb8f444adcd54819eab19a2,43.496490478515625,-112.00054931640625
Arctic Circle,Burger Joint,4bf58dd8d48988d16c941735,4be0a730652b0f47832a7311,43.4968260392238,-111.98360237951732
Fiesta Ole,Mexican Restaurant,4bf58dd8d48988d1c1941735,4c5871f76418a5930fb1810e,43.51223844,-112.013209
Chuck-a-Rama,American Restaurant,4bf58dd8d48988d14e941735,4bd24baca8b3a59315ae675f,43.48836695567061,-111.9836324492975
McDonald's,Restaurant,4bf58dd8d48988d1c4941735,4c5448aaf5f3d13aca3fe5f9,43.510581,-112.017969
Papa John's Pizza,Pizza Place,4bf58dd8d48988d1ca941735,4cb7b1e94352a1cdea4180f5,43.492713386320304,-111.99854294631155
Taco Time,Taco Place,4bf58dd8d48988d151941735,4e4e3c15bd4101d0d7a58d1a,43.497035,-111.982958
McDonald's,Restaurant,4bf58dd8d48988d1c4941735,4c2d5e503a4d0f47dddce386,43.48021729570519,-111.98405765373536
Jalisco's Mexican Restaurant No. 1,Mexican Restaurant,4bf58dd8d48988d1c1941735,4b9c321df964a520b25336e3,43.483247182556056,-111.99151473310698
Blaze Pizza,Comfort Food Restaurant,52e81612bcbc57f1066b7a00,5c9d22453149b9002c2c7426,43.4674072265625,-111.98052215576172
Red Robin Gourmet Burgers and Brews,Burger Joint,4bf58dd8d48988d16c941735,4b999b40f964a520138735e3,43.48183962,-111.9856465
Little Caesars Pizza,Pizza Place,4bf58dd8d48988d1ca941735,4c585ee27329c9285cfe9080,43.482685034610434,-111.99139955270586
Five Guys,Burger Joint,4bf58dd8d48988d16c941735,4b58b2fcf964a5204e6628e3,43.47468516073658,-111.98316909892574
Mick's,American Restaurant,4bf58dd8d48988d14e941735,4f3215aa19836c91c7b4391f,43.376407623291016,-112.127685546875
Garcia's,Mexican Restaurant,4bf58dd8d48988d1c1941735,4b89d355f964a520574f32e3,43.48193499043013,-111.99074891692939
IHOP,Breakfast Spot,4bf58dd8d48988d143941735,4bfbefd2d931c928c36b838b,43.47548432954051,-111.9839367523276
Blue Hashi,Sushi Restaurant,4bf58dd8d48988d1d2941735,4bff55908f76b713fcf21fd5,43.47167556790099,-111.98513813160153
Canton Restaurant,Chinese Restaurant,4bf58dd8d48988d145941735,4c8458a92f1c236a85b74b43,43.48278246666667,-111.99053576
McDonald's,Restaurant,4bf58dd8d48988d1c4941735,4b875629f964a52009bc31e3,43.482155603508104,-112.02064267827609
North Hi-Way Cafe,Café,4bf58dd8d48988d16d941735,4c7a6a9c794e224b2b686828,43.500327436490686,-112.02953231362535
Perkins Restaurant & Bakery,American Restaurant,4bf58dd8d48988d14e941735,4bc51e7e6a3e9c741a89f548,43.479504894669184,-111.9915845990181
KFC,Restaurant,4bf58dd8d48988d1c4941735,4c3ca77d15cb1b8db2e77adc,43.482090991381355,-112.0197789797449
Scotty's,American Restaurant,4bf58dd8d48988d14e941735,4c35446c4308b7131aa5c430,43.501108,-112.028139
Abracadabra's,Breakfast Spot,4bf58dd8d48988d143941735,566ee792498e5da2b0d11f74,43.479221078714744,-111.99160137038393
Tandoori Oven,Indian Restaurant,4bf58dd8d48988d10f941735,5307e71b498edd00a62b6b80,43.468551399664335,-111.98496440806038
New Hong Kong,Chinese Restaurant,4bf58dd8d48988d145941735,4bc7ba340050b713d056b93b,43.481552,-112.01682337
Franklin's Famous Cheesesteaks,Restaurant,4bf58dd8d48988d1c4941735,536b0464498ed94e12f37ea3,43.490247583512875,-112.03761768520819
McDonald's,Restaurant,4bf58dd8d48988d1c4941735,4ba25ae5f964a52086f037e3,43.496114964262446,-112.05781906843185
Shari's Cafe and Pies,American Restaurant,4bf58dd8d48988d14e941735,4c112994b93cc9b6f7e957e0,43.497125,-112.05257
Panda Express,Chinese Restaurant,4bf58dd8d48988d145941735,52fae88f498e51f9d28f9923,43.491050004986015,-112.05147254887225
Papa Murphy's | Take 'N' Bake Pizza,Restaurant,4bf58dd8d48988d1c4941735,4dcda89152b1f8915b82f83b,43.496333,-112.06830500000001
Copper Rill,Restaurant,4bf58dd8d48988d1c4941735,52463a9111d2cb1d8ffc106b,43.4948,-112.045621
Cedric's Family Restaurant,American Restaurant,4bf58dd8d48988d14e941735,4bc3d598b492d13ab062a960,43.496425,-112.05143100000001
Daylight Doughnuts,Donut Shop,4bf58dd8d48988d148941735,4c40ae11ce54e21e8fe7091a,43.487632751464844,-112.05046081542969
Domino's Pizza,Restaurant,4bf58dd8d48988d1c4941735,4ce867d9d99f721e0663b073,43.49470915734902,-112.04940497875214
Pizza Hut,Restaurant,4bf58dd8d48988d1c4941735,4c60002f3a3703bb5b19e406,43.49711761989145,-112.07029477546314
Kathryn's at the Airport,American Restaurant,4bf58dd8d48988d14e941735,4da33fb92939b1f79f721a57,43.517784118652344,-112.06771850585938
The Great Bambino,Italian Restaurant,4bf58dd8d48988d110941735,4d8e647c6174a093e092c7e3,43.51154708862305,-112.04765319824219
Shakas,Deli / Bodega,4bf58dd8d48988d146941735,4e3dc963a809ba757c0f9293,43.50452992052493,-112.0594445372004
Freddy's Frozen Custard & Steakburgers,American Restaurant,4bf58dd8d48988d14e941735,54b1c6ba498e09d5326f3f98,43.499258,-111.999276
Puerto Vallarta,Mexican Restaurant,4bf58dd8d48988d1c1941735,4c49d3bc20ab1b8db4df4e17,43.51104881447988,-112.0277819908921
Arugula Deli,South American Restaurant,4bf58dd8d48988d1cd941735,54ac4133498ea3fc5aa05cea,43.48890179559248,-112.03740686581794
Pitmaster BarBQue Company,BBQ Joint,4bf58dd8d48988d1df931735,516dbff4e4b070e8d6edec0a,43.5116081237793,-112.04747009277344
Morenita's,Mexican Restaurant,4bf58dd8d48988d1c1941735,4b5cc2aff964a520b24229e3,43.50304478922488,-112.02482724707555
Obradys,Breakfast Spot,4bf58dd8d48988d143941735,4c4c7324959220a17c250911,43.49728570968181,-112.05592919649017
Sandwich Tree,Deli / Bodega,4bf58dd8d48988d146941735,4b805469f964a5209b6830e3,43.48304931605111,-112.04386600900541
Denny's,Breakfast Spot,4bf58dd8d48988d143941735,4bae54b6f964a520b4a33be3,43.503802509350805,-112.05167109325407
"MacKenzie River Pizza, Grill & Pub",American Restaurant,4bf58dd8d48988d14e941735,5307e60e498e6eea031f22cc,43.4846659675851,-112.05047259615093
Krung Threp Thai Food,Thai Restaurant,4bf58dd8d48988d149941735,53126aa8498e1440fd38cf7b,43.49177016545142,-112.03969811502311
Tom's Gyros and Burgers,Restaurant,4bf58dd8d48988d1c4941735,4c6434c686b6be9a8b739034,43.50425908566902,-112.02476633665111
La Vanilla Bean,Bakery,4bf58dd8d48988d16a941735,5136914fe4b0a437539b7409,43.49350331376863,-112.04016456073656
Pachanga's,Latin American Restaurant,4bf58dd8d48988d1be941735,4ba129d0f964a520d29d37e3,43.493539823718706,-112.04018289644415
Olive Garden,Italian Restaurant,4bf58dd8d48988d110941735,4bf09b8c3a15d13ab8ca3e9f,43.49538854180438,-112.05255149424208
Applebee's Grill + Bar,American Restaurant,4bf58dd8d48988d14e941735,4ba95ed1f964a520a8223ae3,43.4970865,-112.0468561
Snakebite,Burger Joint,4bf58dd8d48988d16c941735,4b6e2ca2f964a520a7af2ce3,43.492767241517164,-112.0408272743225
Pizza Pie Cafe,Salad Place,4bf58dd8d48988d1bd941735,4c2e3db7e307d13ac5370fda,43.481323,-111.972084
Cafe Rio Mexican Grill,Salad Place,4bf58dd8d48988d1bd941735,4c4895c7417b20a12378e1a9,43.47466232198101,-111.983277054996
Papa Tom's Pizza,Sandwich Place,4bf58dd8d48988d1c5941735,4c3a4c1d0a71c9b6140a44c9,43.480899154557385,-112.00122387773858
Subway,Sandwich Place,4bf58dd8d48988d1c5941735,4d7d1ff75a396dcb9c9d82fb,43.66973148089538,-111.91520131073526
Subway,Sandwich Place,4bf58dd8d48988d1c5941735,4e4dd768bd41b76bef940354,43.4933009,-112.0517874
Firehouse Subs,Sandwich Place,4bf58dd8d48988d1c5941735,5c74287d037be1002c093986,43.49241393584561,-112.04867275342531
Subway,Sandwich Place,4bf58dd8d48988d1c5941735,5000a4fde4b0645fec87f796,43.470184326171875,-111.9920883178711
Great Harvest,Bakery,4bf58dd8d48988d16a941735,4cbe1fe40adda35d8b2315e3,43.48264510373414,-112.00363320902153
Subway,Sandwich Place,4bf58dd8d48988d1c5941735,4c49f7d320ab1b8d7abd7d17,43.47739625031327,-111.9911392617625
Jimmy John's,Sandwich Place,4bf58dd8d48988d1c5941735,4d03e76230a58cfa39f39be7,43.4693706797621,-111.98497796890227
Jimmy John's,Sandwich Place,4bf58dd8d48988d1c5941735,4c45e6bc342c1b8d4c0ab589,43.49321164828823,-112.0497523539129
Subway,Sandwich Place,4bf58dd8d48988d1c5941735,4c1c3ffdb306c92820ae63b7,43.497035,-112.05731999999999
Papa Murphy's,Pizza Place,4bf58dd8d48988d1ca941735,4c783845bd346dcb226bf1ef,43.482033135900686,-112.00219617427118
The Celt,Pub,4bf58dd8d48988d11b941735,5037cbcee4b05b4c7a439467,43.49177307122217,-112.04117578539675
Cinnabon,Sandwich Place,4bf58dd8d48988d1c5941735,59e93898018cbb269fc829fc,43.4372,-112.12083
Subway,Sandwich Place,4bf58dd8d48988d1c5941735,4bbe3f7479eaef3b14e5aec3,43.4827703116509,-112.01451379938828
Subway,Sandwich Place,4bf58dd8d48988d1c5941735,4c44a19e74ffc928d9d475cc,43.49514111885047,-111.99970855706044
Papa Kelsey's Pizza & Subs,Sandwich Place,4bf58dd8d48988d1c5941735,4caf6484aef16dcb9427a854,43.482841,-111.989061
Domino's Pizza,Pizza Place,4bf58dd8d48988d1ca941735,53d3016e498e2166039937ea,43.48240086905783,-111.96628332138062
Gandolfo's New York Deli,Sandwich Place,4bf58dd8d48988d1c5941735,4ddbacdae4cd229e754da05b,43.48301883537159,-112.00016173307039
City Bagel & Bakery,Bakery,4bf58dd8d48988d16a941735,5875324ca149266d9d7cbae5,43.492155077597204,-112.03980052474435
Subway,Sandwich Place,4bf58dd8d48988d1c5941735,4bcd0316511f95218722b4c7,43.389032375411055,-112.1180388150297
Riverside Deli,Deli / Bodega,4bf58dd8d48988d146941735,4c3637e3ae2da59307ccfcc5,43.483620739443595,-112.0461226440726
Subway,Sandwich Place,4bf58dd8d48988d1c5941735,5e136137c8192c00080742f2,43.48244572255184,-111.96657572023776
Subway,Sandwich Place,4bf58dd8d48988d1c5941735,4c40e0e2e26920a1229c5de7,43.439598,-112.1152191
Smokin Fins,Seafood Restaurant,4bf58dd8d48988d1ce941735,5c0c10a7270ee7002c1c624b,43.493076,-112.04301
Jalisco' Mexican Restaurant,Mexican Restaurant,4bf58dd8d48988d1c1941735,4c4b2c705609c9b6c134c690,43.49400130474898,-112.04530644818222
Good2Go,Convenience Store,4d954b0ea243a5684a65b473,51c9e28e454a98e180f8442d,43.5296125,-111.98349719999999
Fred Meyer Fuel Center,Snack Place,4bf58dd8d48988d1c7941735,591c5c0ca9e4021d1d925083,43.50958891,-112.019501
Pretzelmaker,Snack Place,4bf58dd8d48988d1c7941735,4cdafdf08ec69eb0fb08a6e9,43.479815,-111.98801100000001
Great Harvest Bread,Bakery,4bf58dd8d48988d16a941735,4c3380a7452620a1b5b4230f,43.4925455309187,-112.04031273508248
The Cookie Place,Snack Place,4bf58dd8d48988d1c7941735,5ce303b5d41bb7002b36ff19,43.4828487,-111.9915233
Smith's Fuel Center,Snack Place,4bf58dd8d48988d1c7941735,4f186af9d5fb27cc8f209485,43.49454989095411,-111.99968488538616
Soda Tsunami,Snack Place,4bf58dd8d48988d1c7941735,58f28ca535f983180458b685,43.46535110473633,-111.98487091064453
Soaring Eagle Snacks,Snack Place,4bf58dd8d48988d1c7941735,5696316f498e66016b84add7,43.49991989135742,-112.05490112304688
The Cookie Place,Snack Place,4bf58dd8d48988d1c7941735,5ce306a4ba57b4002cc84de6,43.49319020000001,-112.0497838441803
Bonneville Baseball Snack Bar,Snack Place,4bf58dd8d48988d1c7941735,513e757ce4b02fea8e676df0,43.527658869694264,-111.97047773265548
Firehouse Grill,American Restaurant,4bf58dd8d48988d14e941735,4bf4219f98ac0f473aa063a8,43.47139496240319,-111.98389574624152
Chili's Grill & Bar,Tex-Mex Restaurant,56aa371ae4b08b9a8d5734ba,4bbe0801593fef3bde300456,43.496407,-112.046045
Dixie's Diner,Diner,4bf58dd8d48988d147941735,4b808d31f964a520427c30e3,43.47795669242735,-111.99141785680753
Fuji Sushi & Hibachi,Seafood Restaurant,4bf58dd8d48988d1ce941735,55081636498ef432ad6e9b06,43.474148,-111.982594
Snow Eagle Brewing & Grill,Brewery,50327c8591d4c4b30a586d5d,4e120acd62e1d997a6a4f728,43.495047,-112.045191
Rumbi Island Grill,Restaurant,4bf58dd8d48988d1c4941735,4e0101a052b1ac66aac8e65e,43.478968699393434,-111.9840609523334
Diabla's,Café,4bf58dd8d48988d16d941735,527fccea11d2ac6c30b6e467,43.49263683320102,-112.04052925170669
A Street Soup Market,Soup Place,4bf58dd8d48988d1dd931735,59ef8817bfc6d01e04341114,43.49271774291992,-112.04154205322266
TGI Friday's,American Restaurant,4bf58dd8d48988d14e941735,4bc3cf514cdfc9b6d2f59721,43.47355629901996,-111.98386189465732
Mings Eatery,Chinese Restaurant,4bf58dd8d48988d145941735,4c3bac25a9509c7447d7385b,43.49188695655094,-112.03983867536074
D'railed,Bar,4bf58dd8d48988d116941735,4f65276be4b04d4b164ed76f,43.49264006709953,-112.03678689256627
Outback Steakhouse,Steakhouse,4bf58dd8d48988d1cc941735,4b5266bbf964a520727b27e3,43.504627934452046,-112.0524456975359
Jaker's Bar & Grill,Steakhouse,4bf58dd8d48988d1cc941735,5105dcbde4b026c3cc73716a,43.502468618798986,-112.05101781979617
Texas Roadhouse,Steakhouse,4bf58dd8d48988d1cc941735,4c14604da9c220a16892579d,43.474609,-111.983834
Sandpiper Restaurant East,Steakhouse,4bf58dd8d48988d1cc941735,4be231e2660ec9280218c93b,43.501256849589545,-112.0464337824368
Sizzler,Steakhouse,4bf58dd8d48988d1cc941735,4c0c2b6c009a0f474344ecbf,43.48172420260682,-111.98649831831261
Stockman's Restaurant,Steakhouse,4bf58dd8d48988d1cc941735,4dc473a5c65b89d3ca553616,43.48329627570842,-112.05661186275017
Wrangler Roast Beef,Steakhouse,4bf58dd8d48988d1cc941735,4f322b4c19836c91c7bcf982,43.501593,-112.02386
Bushido,Steakhouse,4bf58dd8d48988d1cc941735,54cf6a5a498e75165d6033fe,43.459014892578125,-112.04129791259766
Open Season Wild Game Restaurant,Steakhouse,4bf58dd8d48988d1cc941735,4efa661161af454600f297ef,43.50196075439453,-112.04963684082031
Jackers Restrant,Steakhouse,4bf58dd8d48988d1cc941735,5120413de4b0d583508642ae,43.502683,-112.050851
Smitty's Pancake & Steak House,American Restaurant,4bf58dd8d48988d14e941735,4b51f097f964a520605c27e3,43.49361339126909,-112.04628177665175
Switzerland,Swiss Restaurant,4bf58dd8d48988d158941735,4ef730ade5fa4f286b350e5f,43.44629,-112.04309
Dutch Bros Coffee,Tea Room,4bf58dd8d48988d1dc931735,5da949eadb23560008256363,43.467927,-111.977993
Dutch Bros Coffee,Tea Room,4bf58dd8d48988d1dc931735,5bf42f5bbfc6d0002c10fed8,43.497898,-111.999377
Dutch Bros Coffee,Tea Room,4bf58dd8d48988d1dc931735,5bf42f5e2bf29b002de6b01b,43.48205643695308,-112.01729674260389
Herbal Magic,Tea Room,4bf58dd8d48988d1dc931735,537d322b498ed3ab7b2a7c96,43.67549133300781,-111.91378784179688
Love's Travel Stop,Truck Stop,57558b36e4b065ecebd306dd,5192a45819141c10f841e9e1,43.4365543,-112.1200012
"Wada Farms Marketing Group, LLC",Pide Place,530faca9bcbc57f1066bc2f2,55256f6b498e2692b40fe89d,43.463136527413724,-111.9927191734314
Vegan Market,Vegetarian / Vegan Restaurant,4bf58dd8d48988d1d3941735,4ed0553dd3e3521ce59e7799,43.39129,-112.11951
Buffalo Wild Wings,Wings Joint,4bf58dd8d48988d14c941735,4dd425ca22716ea3ce5737b8,43.485082635518985,-112.05003529787064
The Frosty Gator,Bar,4bf58dd8d48988d116941735,4bff4a1f8f76b7130ef11fd5,43.49476284499814,-112.03744571497121
The Garden Grille & Bar,American Restaurant,4bf58dd8d48988d14e941735,52540dae11d2a674c9ec4880,43.499305,-112.045645
5Th Avenue,Restaurant,4bf58dd8d48988d1c4941735,4e503c5b18a8af30fd916303,43.470149993896484,-112.085693359375
