name,category,category_id,venue_id,lat,long
charlie's,American Restaurant,4bf58dd8d48988d14e941735,527825f911d2f277c67c3155,42.47173309326172,-122.8116455078125
Drive-by Deli,American Restaurant,4bf58dd8d48988d14e941735,4f1b6595e4b064e65c016620,42.47937900608636,-122.80610128996821
Aqua Restaurant & Bar,American Restaurant,4bf58dd8d48988d14e941735,5b8204931f7440002c0d8dc0,42.19844,-122.71547
Alchemy Restaurant and Bar,American Restaurant,4bf58dd8d48988d14e941735,4bc653d4d35d9c743498e23a,42.19482767650614,-122.71206226954978
Ruby's,American Restaurant,4bf58dd8d48988d14e941735,4dd548f1d4c0e6b33e4f8f94,42.19799160055296,-122.71334246837439
Alchemy Restaurant,American Restaurant,4bf58dd8d48988d14e941735,51aa9734498e042d14e49eaa,42.194774547648585,-122.71211696604516
Arbor House,American Restaurant,4bf58dd8d48988d14e941735,55937464498ed82c3b21cb58,42.24368421533415,-122.78692586912916
Dutch Bros. Coffee,American Restaurant,4bf58dd8d48988d14e941735,4c784e1297028cfa2a6ed7fe,42.304019,-122.8524609
Figaro's Pizza - Phoenix,American Restaurant,4bf58dd8d48988d14e941735,5dc132c5d439b500087cbad1,42.2755091,-122.8172991
Rogue Regency Inn,American Restaurant,4bf58dd8d48988d14e941735,4b3b9b22f964a520e37625e3,42.35314296663491,-122.87407592659548
IHOP,American Restaurant,4bf58dd8d48988d14e941735,5d8b84214956e900085be21e,42.3102,-122.8537
Arby's,American Restaurant,4bf58dd8d48988d14e941735,4b985abcf964a5208d3d35e3,42.313247169899,-122.860231021597
Arby's,American Restaurant,4bf58dd8d48988d14e941735,5c1aa6601cf2e1002ce13b15,42.349163150590954,-122.87439608484544
The Bohemian Club,American Restaurant,4bf58dd8d48988d14e941735,5441cd97498ea9171ac9cc4e,42.325107,-122.874658
The Grilled Cheese Company,American Restaurant,4bf58dd8d48988d14e941735,4fdfeb85e4b0872cf2238de5,42.364805,-122.875759
Five Guys,American Restaurant,4bf58dd8d48988d14e941735,5bb2453c31ac6c00399a265a,42.31010818481445,-122.85096740722656
Havana Republic,American Restaurant,4bf58dd8d48988d14e941735,4e167658b0fb42f987333c61,42.32494916009642,-122.87444873093798
Touvelle Lodge,American Restaurant,4bf58dd8d48988d14e941735,4be489742457a593505eaa15,42.44956588745117,-122.8983383178711
Figaro's Pizza,American Restaurant,4bf58dd8d48988d14e941735,5cdff170b8fd9d002cc61b3b,42.32258809082076,-122.89857029914856
The Bistro Marriott,American Restaurant,4bf58dd8d48988d14e941735,4d8b5f2599c2a1cd7deda3d7,42.36970303440894,-122.87786499190935
Grape Street Bar and Grill,New American Restaurant,4bf58dd8d48988d157941735,577c4363498ea93ac4812221,42.324589,-122.874247
Peerless Restaurant & Bar,New American Restaurant,4bf58dd8d48988d157941735,4ba2dcb0f964a520db1e38e3,42.19777387356885,-122.70746162261337
Hearsay,New American Restaurant,4bf58dd8d48988d157941735,55fe4fc9498e45bcfdcd3c38,42.19505752290196,-122.71268580883216
Happy Bowl,Asian Restaurant,4bf58dd8d48988d142941735,5591d990498eb0665ffaf4ab,42.185239961504955,-122.69121957416357
Great Outdoor Grill,Asian Restaurant,4bf58dd8d48988d142941735,4da4a62c22a5f04d0b3f3d55,42.31612638061882,-122.83300483195274
cucu's,Asian Restaurant,4bf58dd8d48988d142941735,5584cd1c498eef1e7ea2cb04,42.279667,-122.823091
Bali Asian Bistro,Asian Restaurant,4bf58dd8d48988d142941735,55f70857498ecab725c22e99,42.280057,-122.82276100000001
Mongolian BBQ,Asian Restaurant,4bf58dd8d48988d142941735,4bb3a07d2397b713876438b3,42.33439,-122.86445900000001
King Bo,Chinese Restaurant,4bf58dd8d48988d145941735,4e837d9c2c5b592974e81bf9,42.322697,-122.90353999999999
Panda Express,Chinese Restaurant,4bf58dd8d48988d145941735,4b6791d2f964a520ab552be3,42.36123294636748,-122.85990369739298
New China Chinese Cuisine,Chinese Restaurant,4bf58dd8d48988d145941735,4ec6b58929c22cc60b6ff382,42.31604945739044,-122.8590556222067
Ling's Chinese and American Food,Chinese Restaurant,4bf58dd8d48988d145941735,4f322a1319836c91c7bc8123,42.427571,-122.850498
Silver Dragon,Chinese Restaurant,4bf58dd8d48988d145941735,4b9ed559f964a5201e0537e3,42.33848,-122.86081
Golden Dynasty,Chinese Restaurant,4bf58dd8d48988d145941735,4c92c26cd84a6dcbddb53787,42.184937,-122.690055
King Wah,Chinese Restaurant,4bf58dd8d48988d145941735,4d55e07958856dcb60e74f6d,42.34100706301713,-122.88008266362668
Golden Wok,Chinese Restaurant,4bf58dd8d48988d145941735,4d8b5e9099c2a1cd39dea3d7,42.320565,-122.86626799999999
Yummy Yan's Chinese Restaurant,Chinese Restaurant,4bf58dd8d48988d145941735,4b85fd2cf964a520b67c31e3,42.3413215208955,-122.85998682584878
China Hut,Chinese Restaurant,4bf58dd8d48988d145941735,4be5c7f6cf200f4768b8133c,42.323046999999995,-122.86801100000001
Panda Garden,Chinese Restaurant,4bf58dd8d48988d145941735,4e74fa7a2271ffa4e6ba5186,42.185774,-122.684334
New Far East,Restaurant,4bf58dd8d48988d1c4941735,4b63c2eef964a5205d902ae3,42.3284123,-122.8748759
G's Bento,Chinese Restaurant,4bf58dd8d48988d145941735,4f3c10c0e4b08082aedb51de,42.323521,-122.89391200000001
Mei Sum,Chinese Restaurant,4bf58dd8d48988d145941735,4ce993c3fe90a35d7f40490e,42.244924,-122.783855
Bento East,Chinese Restaurant,4bf58dd8d48988d145941735,4beefe3b5e4aa593896358bb,42.198192999999996,-122.716175
Chinese Gourmet Express,Chinese Restaurant,4bf58dd8d48988d145941735,5036f45de4b0fc35e3213a85,42.345122247004035,-122.87801809088624
Panda House,Chinese Restaurant,4bf58dd8d48988d145941735,4c92c46a6cfea093a9cbb48b,42.27981090545654,-122.82301783561707
Chun's Palace,Chinese Restaurant,4bf58dd8d48988d145941735,4d69c17a0a25b60cba432990,42.19955062866211,-122.71283721923828
Jack's Hide-A-Away,Chinese Restaurant,4bf58dd8d48988d145941735,4cd09d34de0f6dcb20fd6b63,42.34087944030762,-122.88009524345398
"Jin Ma's Market, LLC",Chinese Restaurant,4bf58dd8d48988d145941735,525eac8711d2c8c159bda381,42.37410354614258,-122.85254669189453
Beijing House,Chinese Restaurant,4bf58dd8d48988d145941735,4d68bf25342b8cfae7debe2c,42.332378000000006,-122.87276899999999
Meisum,Chinese Restaurant,4bf58dd8d48988d145941735,4f3234e619836c91c7c0ac03,42.24400329589844,-122.78245544433594
Blue Toba,Indonesian Restaurant,4deefc054765f83613cdba6f,5495e1c6498e9c88a81209dc,42.18519125954164,-122.68580825749731
"Mie Restu ""Bang Karman""",Indonesian Meatball Place,52960eda3cf9994f4e043acc,52b6dfec498e698186d55659,42.3759586,-122.9164307
Chòzu Bath and Tea Gardens,Spa,4bf58dd8d48988d1ed941735,4dc59c202271f2705131dc47,42.197282,-122.702989
Umami,Japanese Restaurant,4bf58dd8d48988d111941735,5b2417cf464d65002c7a6980,42.196806,-122.714276
Little Tokyo,Japanese Restaurant,4bf58dd8d48988d111941735,57e5c41b498e4eeaa5a169b7,42.197257,-122.715678
Shoji's,Japanese Restaurant,4bf58dd8d48988d111941735,4bc2635cb492d13a0484a760,42.31484828980019,-122.83398608482247
Sakana Co,Japanese Restaurant,4bf58dd8d48988d111941735,5be6540e79f6c7002cd7b900,42.327494,-122.87017
Gen Kai Japanese Restaurant,Japanese Restaurant,4bf58dd8d48988d111941735,4f3256b019836c91c7cdf28c,42.340328216552734,-122.8700180053711
Mihama,Japanese Restaurant,4bf58dd8d48988d111941735,5204219b498e327333077de9,42.186759,-122.693568
Sushi and Bento,Sushi Restaurant,4bf58dd8d48988d1d2941735,57fd83b4498e134f8468e3aa,42.278931,-122.821087
Hiro Ramen,Ramen Restaurant,55a59bace4b013909087cb24,58fbf7cfc21cb16c1753fc72,42.196219,-122.7122
Shiki Four Seasons / Rumors Karaoke,Sushi Restaurant,4bf58dd8d48988d1d2941735,4bf5e010bb5176b0f0dd5ab2,42.338459,-122.875674
Hiro Sushi,Sushi Restaurant,4bf58dd8d48988d1d2941735,516329aae4b0ec7bdff6e36b,42.368095000000004,-122.860918
Oh's Osaka,Japanese Restaurant,4bf58dd8d48988d111941735,4bc905c8cc8cd13a3be6bacf,42.32501945779726,-122.87161551241103
Sakura,Japanese Restaurant,4bf58dd8d48988d111941735,512846c1e4b03513fdc527ed,42.338470458984375,-122.87574005126953
Tosu Ramen & Sushi,Sushi Restaurant,4bf58dd8d48988d1d2941735,59a2ec984f0e5813f89288bf,42.317755,-122.86253899999998
Zen Zen Sushi,Sushi Restaurant,4bf58dd8d48988d1d2941735,4b47a9b0f964a5208b3926e3,42.375141,-122.91593999999999
Sakana,Sushi Restaurant,4bf58dd8d48988d1d2941735,5b8c840d610f04002cb8bb76,42.196621,-122.713005
Kobe Modern Japanese Cuisine,Japanese Restaurant,4bf58dd8d48988d111941735,4ab5c28ef964a5200c7620e3,42.198659368301456,-122.71583006097526
Bonsai Teriyaki,Asian Restaurant,4bf58dd8d48988d142941735,4ba2c369f964a520351738e3,42.325979740540916,-122.87581151521228
Star Sushi,Sushi Restaurant,4bf58dd8d48988d1d2941735,502c0256e4b0b2dbe9225bb7,42.19552711003303,-122.7113764783199
I Love Sushi,Sushi Restaurant,4bf58dd8d48988d1d2941735,4b7f5c28f964a520e42930e3,42.31772510182098,-122.86251283574367
Hiro Sushi,Sushi Restaurant,4bf58dd8d48988d1d2941735,5c52588afebf31002cb72b83,42.195598,-122.71133200000001
Umi Sushi,Sushi Restaurant,4bf58dd8d48988d1d2941735,518869ad498e8372fb7e0df0,42.197305,-122.715662
Lee's Cuisine,Korean Restaurant,4bf58dd8d48988d113941735,4d40ca14cb84b60c207d89ab,42.18700408935547,-122.67005157470703
Shinsei Sushi,Sushi Restaurant,4bf58dd8d48988d1d2941735,50e1f0f1e4b0439f0afc9b68,42.34332413543963,-122.8827257649026
Daddy Ramen,Noodle House,4bf58dd8d48988d1d1941735,5aff334262845c0024a2b6c2,42.324135,-122.86791
Yuan yuan,Chinese Restaurant,4bf58dd8d48988d145941735,4c479b7d89a6c9b6f3f69a88,42.184925,-122.67270500000001
Vim Thai Restaurant,Thai Restaurant,4bf58dd8d48988d149941735,59094d2b3731ee55970586ae,42.320044,-122.865885
Natalee Thai,Thai Restaurant,4bf58dd8d48988d149941735,4b688a11f964a520a77e2be3,42.34144838712805,-122.85918874071062
Mai Thai,Thai Restaurant,4bf58dd8d48988d149941735,4c9ac3e19c663704aadb5bfd,42.374559000000005,-122.918203
Ali's Thai Kitchen,Thai Restaurant,4bf58dd8d48988d149941735,4ba12f29f964a520de9f37e3,42.34814,-122.88755
Jasmine,Thai Restaurant,4bf58dd8d48988d149941735,5272c15911d22517014e475c,42.327088,-122.87078100000001
Bangkok's Atchara,Thai Restaurant,4bf58dd8d48988d149941735,4c12f23d7f7f2d7f4b57de68,42.244240000000005,-122.78836000000001
Thai House,Thai Restaurant,4bf58dd8d48988d149941735,4c2bebcbd1a10f474fc8f864,42.3144818857346,-122.9689967703498
Asian Grill,Asian Restaurant,4bf58dd8d48988d142941735,4b61f78ef964a520092e2ae3,42.341378000000006,-122.87191599999998
ChiVi,Vietnamese Restaurant,4bf58dd8d48988d14a941735,4c37d2fe0a71c9b6e8a83fc9,42.32066094875336,-122.86628723144531
Oak Tree Northwest,American Restaurant,4bf58dd8d48988d14e941735,4c3d0543a97bbe9a945cfbdd,42.18530942449242,-122.66309252217079
Mary's BBQ place,BBQ Joint,4bf58dd8d48988d1df931735,5886504f14f8f4494fff4c9e,42.378002,-122.91088
Wrangler BBQ & Grill,BBQ Joint,4bf58dd8d48988d1df931735,4c1d6b928b3aa593689d9a5f,42.338958740234375,-122.88021087646484
Mary's BBQ on the Knoll,BBQ Joint,4bf58dd8d48988d1df931735,5e69e87d34928c0008ffe9ac,42.18022537231445,-122.65851593017578
Fred Meyer,Supermarket,52f2ab2ebcbc57f1066b8b46,4b801e03f964a520b65330e3,42.314423,-122.8558524
Franz Bakery Outlet,Bakery,4bf58dd8d48988d16a941735,4bec4138fd60a593a9bb3af1,42.33610916137695,-122.87065124511719
Crumbl Cookies,Bakery,4bf58dd8d48988d16a941735,5d995c94f2a4430008b965fa,42.34186935424805,-122.8719482421875
La Baguette,Bakery,4bf58dd8d48988d16a941735,4f298396e4b005595eed071b,42.198425,-122.7096
Griffin Creek Coffee Roasters & Manna Bakery,Bakery,4bf58dd8d48988d16a941735,5d44699b68f17400089e7bfe,42.19697189331055,-122.71601104736328
The Chocolate Beagle,Bakery,4bf58dd8d48988d16a941735,4f05234e02d5265072aee898,42.382301330566406,-122.9227066040039
Einstein Bros. Bagels,Bakery,4bf58dd8d48988d16a941735,56e857cf498e1afd3a395f47,42.18505854851517,-122.69264906644821
Únicorn Kitchen (satellite site),Bakery,4bf58dd8d48988d16a941735,514a4517e4b032d3f2905885,42.309444427490234,-122.85291290283203
Sweet Stuff Specialty Cakes & Desserts,Bakery,4bf58dd8d48988d16a941735,5d8ba5e38597f8000873a60f,42.322486877441406,-122.86693572998047
G.G. Sugarplums,Bakery,4bf58dd8d48988d16a941735,5ce83b9ad552c7002c2786a4,42.314352,-122.968801
La Reyna Bakery,Bakery,4bf58dd8d48988d16a941735,4f44992b19836ed001952b47,42.427009000000005,-122.84825500000001
gluten free paradise,Bakery,4bf58dd8d48988d16a941735,580788be38fa88ab662a8ee8,42.185784,-122.670281
YummyKake,Bakery,4bf58dd8d48988d16a941735,4bf0ce6d6f8aa593d34dc23c,42.351457,-122.85372199999999
Ashland Bakery,Bakery,4bf58dd8d48988d16a941735,4e11e91262e1d997a6a37b22,42.19649124145508,-122.71318817138672
Luna Cafe,Bistro,52e81612bcbc57f1066b79f1,577c4ad3498e2925237b2d42,42.18675849979622,-122.66295339155866
South Stage Cellars,Wine Bar,4bf58dd8d48988d123941735,4c54ab73479fc9289abb8493,42.31381569887554,-122.96779248995307
Central Point Perk,Bistro,52e81612bcbc57f1066b79f1,57592a49498e645e67c31df9,42.374614,-122.916947
Barbwire Grill,Restaurant,4bf58dd8d48988d1c4941735,4dfccb3152b18923030d4c23,42.47318204713908,-122.80336343967583
McDonald's,Breakfast Spot,4bf58dd8d48988d143941735,4bb5623e941ad13a6a361ee3,42.316172445193,-122.86153696012656
McDonald's,Breakfast Spot,4bf58dd8d48988d143941735,5067a339e4b03c3d3b0dd94e,42.309982,-122.8565964
Larks Restaurant Medford,American Restaurant,4bf58dd8d48988d14e941735,52c38f5a498e40e9796914fb,42.32938,-122.871102
TinTin Buffet,Chinese Restaurant,4bf58dd8d48988d145941735,4b5b8cb3f964a5204f0629e3,42.35271031796602,-122.86829428334622
HomeTown Buffet,Buffet,52e81612bcbc57f1066b79f4,4fb2dee17beba00e2f2f4dfe,42.31509684054703,-122.85765423483753
In-N-Out Burger,Burger Joint,4bf58dd8d48988d16c941735,556cb193498e7e10add89f8e,42.346581012217605,-122.87988172240132
Wendy’s,Burger Joint,4bf58dd8d48988d16c941735,4bfec37b68c7a5932fa53f44,42.34000167635543,-122.8719750792061
Carl's Jr.,Burger Joint,4bf58dd8d48988d16c941735,4fe545d4e4b0ef8f177d5b32,42.47243004319284,-122.81314800000001
Wendy’s,Burger Joint,4bf58dd8d48988d16c941735,4b63af9ff964a520108c2ae3,42.34652590448101,-122.88322806358337
Wendy’s,Burger Joint,4bf58dd8d48988d16c941735,4bb795321261d13ad983e798,42.31753414642697,-122.86436274647713
Sonic Drive-In,Burger Joint,4bf58dd8d48988d16c941735,4b676ba4f964a520e04d2be3,42.3783530092422,-122.896160341879
Sonic Drive-In,Burger Joint,4bf58dd8d48988d16c941735,4bbe3ca10ec69c74cf0e5659,42.3618301334546,-122.860103406092
Sweet Tea Express,BBQ Joint,4bf58dd8d48988d1df931735,531249e5498e05128b7bc3f2,42.32373356794448,-122.89336239551857
Carl's Jr. / Green Burrito,Burger Joint,4bf58dd8d48988d16c941735,4c2a89b9bbc7e21ef56e3582,42.31364884850332,-122.85879861529207
Big Al's,Burger Joint,4bf58dd8d48988d16c941735,4becc7ef6b88c9b61e848762,42.204809000000004,-122.71992900000001
Frosty Boy,Burger Joint,4bf58dd8d48988d16c941735,4d01d1e4ac222d43fa0e0c0a,42.313492,-122.87774099999999
Flip,Burger Joint,4bf58dd8d48988d16c941735,556515ed498e726bdeda1e1a,42.19843920369047,-122.71584946254903
Louies,American Restaurant,4bf58dd8d48988d14e941735,5b6ca298491be700394dc708,42.19743728637695,-122.71585083007812
The Burger Spot,Burger Joint,4bf58dd8d48988d16c941735,4eb1a651b63435b07dcbe58e,42.325172424316406,-122.8706283569336
Darex,Cafeteria,4bf58dd8d48988d128941735,4f4ed1c1e4b0cc5f13e4ed5e,42.200904,-122.70853899999999
North Medford cafeteria,College Cafeteria,4bf58dd8d48988d1a1941735,4febf7a0e4b09808a6e8ae69,42.34793452234408,-123.00155638992035
Boulevard Coffee,Café,4bf58dd8d48988d16d941735,4c018ee2716bc9b6d418bc55,42.19345148210892,-122.70699029906324
Oregon Mountain Coffee Co.,Café,4bf58dd8d48988d16d941735,4bce21dc29d4b7138003a8dc,42.315181,-122.81521399999998
Water Street Cafè,Café,4bf58dd8d48988d16d941735,4c02c9f2187ec92860bfb47b,42.197682,-122.714974
Hot Spot,Café,4bf58dd8d48988d16d941735,4e028c01d164b56ad5317dd2,42.18695831298828,-122.69351196289062
Le Baguette Hardware Cafe,Bagel Shop,4bf58dd8d48988d179941735,4fd39983e4b008dc35ff579a,42.19841003417969,-122.70955657958984
Essential Wellness Cafe Aroma,Herbs & Spices Store,52f2ab2ebcbc57f1066b8b2c,55d152f6498e80ec9803b056,42.19508225089115,-122.71094274788095
Club 66,Café,4bf58dd8d48988d16d941735,51d4d714498eef355464b26e,42.18560028076172,-122.67981719970703
Mellelo Coffee Roasters,Café,4bf58dd8d48988d16d941735,4bddc1aee75c0f47987bc503,42.368728585439506,-122.86102381292403
Dutch Bros. Coffee,Café,4bf58dd8d48988d16d941735,4bdb685cc79cc928dca482e9,42.3193093469313,-122.86541505518443
Human Bean,Café,4bf58dd8d48988d16d941735,4c423ae8ce54e21ef9600c1a,42.374614,-122.916947
Café Dejeuner,American Restaurant,4bf58dd8d48988d14e941735,4db46843a86e8d2707845441,42.327635,-122.859939
Bad Ass Coffee of Hawaii,Café,4bf58dd8d48988d16d941735,4c6ce03e1585ef3bdae1079e,42.325643295445154,-122.86917020732032
La Strada Boutique and Cafe,Boutique,4bf58dd8d48988d104951735,4dd6e1c8fa76ad96d11714f7,42.344309,-122.88135700000001
Shari's Cafe and Pies,American Restaurant,4bf58dd8d48988d14e941735,4dbc16dcfa8cee7273426e8d,42.376775,-122.900109
Hither,Café,4bf58dd8d48988d16d941735,59b18d814ce06668d0b492d8,42.194557,-122.71042
Essential Wellness,Café,4bf58dd8d48988d16d941735,5c10467e3af988002bc11642,42.195246999999995,-122.71165900000001
rogue valley medical center cafeteria,Café,4bf58dd8d48988d16d941735,50e72515e4b0979c882330a3,42.31822967529297,-122.83101654052734
First Street Cafe,Café,4bf58dd8d48988d16d941735,506f2b51e4b04f4747cfc08b,42.27344279555675,-122.81636987129953
Hidden Door Cafe,Café,4bf58dd8d48988d16d941735,58bf1f817d0f6d4037e7e86f,42.339048999999996,-122.87723500000001
The Pump House,Comfort Food Restaurant,52e81612bcbc57f1066b7a00,590a82ac93bd631a3e86b557,42.244896000000004,-122.787423
harvey's place,Comfort Food Restaurant,52e81612bcbc57f1066b7a00,54a60ab3498e5c3b35f4b2e0,42.196812,-122.714699
Kelly's Crepes,Creperie,52e81612bcbc57f1066b79f2,53b59dc0498ecdc36ae3df26,42.198372,-122.707228
Walmart Bakery,Deli / Bodega,4bf58dd8d48988d146941735,59936c9e6a59502286937610,42.36779,-122.85605
Deli Delight,Deli / Bodega,4bf58dd8d48988d146941735,4bec49efc43f2d7f9cacdbd9,42.352129,-122.86833899999999
Walmart Bakery,Deli / Bodega,4bf58dd8d48988d146941735,59935df31c675b0c97ba8852,42.46353497,-122.817301
Zach's Deli,Deli / Bodega,4bf58dd8d48988d146941735,4c06d7cd8a81c9b6955b2690,42.31238555908203,-122.85716247558594
Purple Parrot #38,Deli / Bodega,4bf58dd8d48988d146941735,52e91ade11d21a59fe36fab9,42.37679523163332,-122.90451580095029
Walmart Bakery,Deli / Bodega,4bf58dd8d48988d146941735,5992cb7416ef6720c334abb1,42.31048054,-122.85451
Deli Down,Deli / Bodega,4bf58dd8d48988d146941735,4b74c124f964a52043f02de3,42.327364,-122.87013700000001
Purple Parrot,Deli / Bodega,4bf58dd8d48988d146941735,4f345a00e4b0e1256c199b94,42.318704,-122.86585600000001
Good 2 Go Deli,Deli / Bodega,4bf58dd8d48988d146941735,52cc6e0b498ecb103b638b5e,42.32472229003906,-122.87503814697266
Harry & David Country Store,Gourmet Shop,4bf58dd8d48988d1f5941735,4b5a1338f964a520adab28e3,42.31245405101688,-122.85722715581521
Lillie Belle Farms,Candy Store,4bf58dd8d48988d117951735,4bb7b6251261d13a13c0e798,42.375501576481355,-122.91986100759469
Dagoba Chocolate,Dessert Shop,4bf58dd8d48988d1d0941735,4bb7b5501261d13a8bbee798,42.173939000000004,-122.660625
Butte Creek Mill,Gourmet Shop,4bf58dd8d48988d1f5941735,4bb3bae02397b7139a8938b3,42.474222999999995,-122.79828300000001
Apple Cellar Bakery & Bistro,Bakery,4bf58dd8d48988d16a941735,4bbc0a823de8c9b63a9e9aad,42.18563461303711,-122.67292785644531
"Peace, Love, and Little Donuts",Bakery,4bf58dd8d48988d16a941735,5358215411d2f037c6e43d9b,42.341378000000006,-122.87191599999998
See's Candies,Candy Store,4bf58dd8d48988d117951735,4b9ff37ef964a520144d37e3,42.342106,-122.870527
Cookie Connection,Dessert Shop,4bf58dd8d48988d1d0941735,4bbe668d82a2ef3b35532bd2,42.344231,-122.877528
Enchanted Florist,Dessert Shop,4bf58dd8d48988d1d0941735,4bbfadcf4cdfc9b6edb29121,42.18579864501953,-122.6744155883789
Rocky Mountain Chocolate Factory,Dessert Shop,4bf58dd8d48988d1d0941735,4c7f031f01df37042133e5ac,42.34612744510111,-122.87967681884766
Apple Cellar Bakery,Bakery,4bf58dd8d48988d16a941735,4c0d216b2466a5930f167721,42.19649124145508,-122.71318817138672
Pretzelmaker,Dessert Shop,4bf58dd8d48988d1d0941735,4cdafe238ec69eb0b20da6e9,42.32512944100139,-122.87047444694807
The Cupcake Company,Cupcake Shop,4bf58dd8d48988d1bc941735,4d65b6d3e07aa35dba95a18f,42.314592,-122.81544699999999
Cupcake Daily,Cupcake Shop,4bf58dd8d48988d1bc941735,51af912f498ea309dbb79c44,42.197184,-122.713018
The Sweet Shop,Cupcake Shop,4bf58dd8d48988d1bc941735,4c13e21c77cea59356a9cf60,42.2446403503418,-122.78665924072266
All American Frozen Yogurt,Frozen Yogurt Shop,512e7cae91d4cbb4e5efe0af,4f32198d19836c91c7b5cef5,42.341981,-122.878248
Yogurt Hut,Frozen Yogurt Shop,512e7cae91d4cbb4e5efe0af,4b53bfc1f964a52031aa27e3,42.197012800791235,-122.71307727558413
Yogurt Hut,Frozen Yogurt Shop,512e7cae91d4cbb4e5efe0af,50f0c7b1e4b07f0405ef3872,42.343378,-122.882852
Yogurt In Love,Frozen Yogurt Shop,512e7cae91d4cbb4e5efe0af,53efd9bd498e9e6366057264,42.333401,-122.86508799999999
Yogurt Hut,Frozen Yogurt Shop,512e7cae91d4cbb4e5efe0af,4ba2ef28f964a520892338e3,42.31167138863143,-122.85411012821385
Dairy Queen,Ice Cream Shop,4bf58dd8d48988d1c9941735,4b9c79b8f964a5203a6b36e3,42.32408533870443,-122.89466500282288
Dairy Queen,Ice Cream Shop,4bf58dd8d48988d1c9941735,4bad84f7f964a5205a583be3,42.31653335568702,-122.85332751351375
Dairy Queen Grill & Chill,Ice Cream Shop,4bf58dd8d48988d1c9941735,585da436876ade0a35398b75,42.37132552417179,-122.9159751534462
Dairy Queen,Ice Cream Shop,4bf58dd8d48988d1c9941735,4ba3000ef964a520282738e3,42.3466367,-122.8739418
Baskin-Robbins,Ice Cream Shop,4bf58dd8d48988d1c9941735,4bd900042e6f0f476a850908,42.34065119361425,-122.86993737544577
Zoey's Cafe,Café,4bf58dd8d48988d16d941735,4bca97680687ef3b0474dccc,42.19604760266285,-122.71251308307981
Cold Stone Creamery,Ice Cream Shop,4bf58dd8d48988d1c9941735,4b85feadf964a520ec7c31e3,42.33237,-122.867218
Rocky Mountain Chocolate,Dessert Shop,4bf58dd8d48988d1d0941735,4bb160fef964a520d88f3ce3,42.19735,-122.714647
BJ's Ice Cream,Ice Cream Shop,4bf58dd8d48988d1c9941735,4c3fb40eff711b8d35620f05,42.196113576770976,-122.71239953334282
Yotopia,Ice Cream Shop,4bf58dd8d48988d1c9941735,4da113bf540ea1cdc18260de,42.339646,-122.86984199999999
the scoop shoppe,Ice Cream Shop,4bf58dd8d48988d1c9941735,55eba74b498e336a35bdce51,42.314163464095806,-122.96733977871067
Mix Sweet Shop,Dessert Shop,4bf58dd8d48988d1d0941735,4bb1605bf964a520bd8f3ce3,42.197788325933814,-122.71575788292208
Village Baker,Bakery,4bf58dd8d48988d16a941735,4c13bb7db7b9c928e207aa37,42.194663,-122.710659
Denny's,Diner,4bf58dd8d48988d147941735,546c0a2a498ea3aa5672935f,42.35019887135128,-122.87225394178562
Roy's Pioneer Club,Diner,4bf58dd8d48988d147941735,51d1b0d9498e0f4107c41e6a,42.375019714596114,-122.91625451221677
Crackin' & Stackin',Diner,4bf58dd8d48988d147941735,5b142ca0419a9e002cb8104e,42.375141,-122.91593999999999
Punky's Diner and Pies,Diner,4bf58dd8d48988d147941735,507734dae4b0cf0cf0271552,42.33321508521361,-122.86564723874613
Mrs Q's,Diner,4bf58dd8d48988d147941735,4bcdd0c2937ca5934d55ad92,42.33125844063648,-122.87567749394815
Witham Restaurant,Diner,4bf58dd8d48988d147941735,5050c7ebe4b0fed21e6cb99b,42.35279,-122.87628799999999
Case Coffee Roasters,Donut Shop,4bf58dd8d48988d148941735,5a5a43d4dec1d666f424b677,42.197793,-122.714466
Richard's Donuts & Pastries,Donut Shop,4bf58dd8d48988d148941735,4bc123884cdfc9b6833f9421,42.340284999999994,-122.880771
Puck's Donuts,Donut Shop,4bf58dd8d48988d148941735,4c2b72e98abca593e62b0020,42.273765999999995,-122.814929
Donut Den,Donut Shop,4bf58dd8d48988d148941735,4d6878bb6297721e0f76bcb5,42.340842,-122.870093
Puck's Donuts,Donut Shop,4bf58dd8d48988d148941735,4c1a6c97b4e62d7f5bc9d793,42.197761,-122.714643
Smithfields Pub & Pies,English Restaurant,52e81612bcbc57f1066b7a05,562d6ba8498e153d3ec78dd3,42.195062,-122.711702
Shari's Cafe and Pies,American Restaurant,4bf58dd8d48988d14e941735,4b7efb2af964a520070e30e3,42.314185,-122.858387
Rogue Valley Mall,Shopping Mall,4bf58dd8d48988d1fd941735,4bae7a68f964a52065b73be3,42.34469314954818,-122.87797299243569
Reye's Strawberries,Food Stand,56aa371be4b08b9a8d57350b,595e8acfe2da196c103c72f4,42.324403,-122.940807
Nguyên Vietnamese,Food Stand,56aa371be4b08b9a8d57350b,58408a7fbbd6d11f8c074e9d,42.324725,-122.872892
Curbside grill express,Food Truck,4bf58dd8d48988d1cb941735,50817c32e4b068d89b9be487,42.41214356190074,-122.97255376013588
Northwest Pineapple,Food Truck,4bf58dd8d48988d1cb941735,58d42beaabc6d63cd18471e5,42.33543041295964,-122.87435144542444
Caba Empanadas,Food Truck,4bf58dd8d48988d1cb941735,5b25acfd0868a2002c029419,42.32516559175851,-122.87096195307076
Peruvian Point,Food Truck,4bf58dd8d48988d1cb941735,52e45fd1498e6812e8bc99ea,42.31583634494318,-122.83332448286663
Prickly Pear,Food Truck,4bf58dd8d48988d1cb941735,5e694c4cef4d2d000888d1af,42.32911909047035,-122.87376913037377
Ooblies Waffle Food Truck,Food Truck,4bf58dd8d48988d1cb941735,53b3ac9c498e8fbe378827f1,42.323825,-122.86754599999999
Fired Up,Food Truck,4bf58dd8d48988d1cb941735,599ce864d0a1497741796d4e,42.31338601674796,-122.97124027226208
Wasana's Thai Food,Food Truck,4bf58dd8d48988d1cb941735,4e4431332271bdbcf6710e2c,42.33038598978923,-122.86886710514075
Taco Truck,Food Truck,4bf58dd8d48988d1cb941735,4dc301b045dd264552332f89,42.42756166666667,-122.84883655
Cheese Steak King,Food Truck,4bf58dd8d48988d1cb941735,5053918be4b0a13301db5c44,42.32258,-122.868986
Buttercloud To-Go (Food Truck),Food Truck,4bf58dd8d48988d1cb941735,57b08e8e498eb701a52967dd,42.37682538286952,-122.92117635475407
victory dogs,Food Truck,4bf58dd8d48988d1cb941735,56917d54498eb53a0fe09b86,42.331019977543896,-122.8657985068398
Wild Goose Café & Bar,Diner,4bf58dd8d48988d147941735,4b831650f964a520cdf630e3,42.1856651407027,-122.66853973034341
Morning Glory,Breakfast Spot,4bf58dd8d48988d143941735,4b63127af964a520ff602ae3,42.18758833587623,-122.69553472718714
Palms Café,Diner,4bf58dd8d48988d147941735,4ede74570e61d46adcc49538,42.369533033305,-122.91374597950613
Loft Restaurant & Bar,French Restaurant,4bf58dd8d48988d10c941735,4c2d41abe307d13a589b0dda,42.19702975042956,-122.71598855847576
Coquina,French Restaurant,4bf58dd8d48988d10c941735,4e45e987ae60fa7232ed601c,42.19804746761526,-122.70690957110826
Chateaulin Restaurant and Bistro,French Restaurant,4bf58dd8d48988d10c941735,4bd1ff3eb221c9b65eb0d6d0,42.19685363769531,-122.71468353271484
KFC,Fried Chicken Joint,4d4ae6fc7a7b7dea34424761,4bc8b14c6501c9b6e6b04029,42.34087657334309,-122.87900822147844
Jack in the Box,Fried Chicken Joint,4d4ae6fc7a7b7dea34424761,4cbc5b6a7a5d9eb0776531e9,42.31605130102415,-122.8595525233221
KFC,Fried Chicken Joint,4d4ae6fc7a7b7dea34424761,4caf5fa7c5e6a1cddc4cccf6,42.315416675520204,-122.85969128836058
Chick-fil-A,Fried Chicken Joint,4d4ae6fc7a7b7dea34424761,5e5e5cf1fcf7c30008a4fed1,42.3441703,-122.8837853
Jefferson Spirits,Gastropub,4bf58dd8d48988d155941735,52a0c01f11d240dbcf6ff6a1,42.3274759839118,-122.87032877650114
Abigail's Bed and Breakfast Inn,Gastropub,4bf58dd8d48988d155941735,56c8f7e9cd10c7b2ecf7bf8b,42.20454093,-122.72043047
The Point,Gastropub,4bf58dd8d48988d155941735,56ff0472498e5719837ec809,42.31155282392416,-122.85438463776937
The Playwright Public House,Gastropub,4bf58dd8d48988d155941735,4e0631e045ddb2875c42cc16,42.19887927950066,-122.71058433475356
Public House,Gastropub,4bf58dd8d48988d155941735,56463a79498e460c722f6b1e,42.198726654052734,-122.71055603027344
Jefferson Spirits,Gastropub,4bf58dd8d48988d155941735,5b67bf73db1d81002c99ba90,42.196627,-122.71321200000001
Brothers' Restaurant,American Restaurant,4bf58dd8d48988d14e941735,4b7988f2f964a52095ff2ee3,42.198336679822305,-122.71601285818565
TonTon's,Greek Restaurant,4bf58dd8d48988d10e941735,56214235498e9e31718ccee6,42.244558000000005,-122.78655
Grass Shack Cafe,Restaurant,4bf58dd8d48988d1c4941735,4c2ff89716adc928f38fbe9c,42.282445,-122.81839
Lil' Orchid,Hawaiian Restaurant,52e81612bcbc57f1066b79fe,5af4a6a5bcbf7a002c7a37d3,42.34733,-122.87435
Auntie Carol’s Hawaiian Cafe,Hawaiian Restaurant,52e81612bcbc57f1066b79fe,5bf60321f05ca8002ddfebfe,42.326353,-122.872288
Hawaiian Hut,Hawaiian Restaurant,52e81612bcbc57f1066b79fe,5c876044e7a237002cf5da33,42.314507,-122.862094
Diana's Dogs,Hot Dog Joint,4bf58dd8d48988d16f941735,5032736d64a4668f97e0faaa,42.28710174560547,-122.83332824707031
Victory Through Dog Power,Food Truck,4bf58dd8d48988d1cb941735,5048eff0e4b0ddb8f0d0798b,42.32648425298014,-122.87335803361442
Flavor,Indian Restaurant,4bf58dd8d48988d10f941735,5d7be0a222034d00082ea6a3,42.323622,-122.886153
Masala Bistro & Bar,Indian Restaurant,4bf58dd8d48988d10f941735,5bd61ee1cad1b6002cfc2377,42.198838,-122.710439
India Palace,Indian Restaurant,4bf58dd8d48988d10f941735,4bdcd6d93904a5931aff4f9e,42.3418739,-122.8718339
Taj Indian Cuisine,Indian Restaurant,4bf58dd8d48988d10f941735,4ba5244af964a520fde238e3,42.19842190344182,-122.71532574232502
भारत का स्वाद,Indian Restaurant,4bf58dd8d48988d10f941735,5200910e498e70dc5e765eee,42.479434848593264,-122.93212450422095
O'Ryan's Irish Pub,Irish Pub,52e81612bcbc57f1066b7a06,4b2ca15df964a52036c824e3,42.19661937536421,-122.71328074939498
Smithfields Restaurant & Bar,American Restaurant,4bf58dd8d48988d14e941735,4dbdf36b43a1d8504bb34c07,42.194673353831526,-122.7116782891533
The Beau Club,Bar,4bf58dd8d48988d116941735,4c7048cf344437043ab6235f,42.19507928226414,-122.7107944936388
Paddy Brannan's Irish Pub,Irish Pub,52e81612bcbc57f1066b7a06,4c2d40bf3a4d0f4722a3e386,42.195091501186845,-122.71158849412437
Pomodori Bistro and Wine Bar,Italian Restaurant,4bf58dd8d48988d110941735,51685bdf498edcd0b1faea92,42.32739065261688,-122.86999189468762
Cucina Biazzi,Italian Restaurant,4bf58dd8d48988d110941735,4c32c220452620a116a0220f,42.194143,-122.70776799999999
Beasy's On The Creek,Italian Restaurant,4bf58dd8d48988d110941735,4ba54c68f964a520d1f738e3,42.199039,-122.715747
DiBello's Italian Food & Sandwiches,Italian Restaurant,4bf58dd8d48988d110941735,4b7757a4f964a5208a932ee3,42.31521987915039,-122.84504699707031
Vinny's Italian Kitchen,Italian Restaurant,4bf58dd8d48988d110941735,4c142b11a1010f47c70b4c18,42.314535,-122.81599299999999
NW Raw,Juice Bar,4bf58dd8d48988d112941735,52fc07bf11d26e6f2022569e,42.19478491537613,-122.71056218155877
Orange Julius,Juice Bar,4bf58dd8d48988d112941735,4ea86dbbd3e30cbc438c66d7,42.34432180394327,-122.87755410253894
Extreme Juice,Juice Bar,4bf58dd8d48988d112941735,4e31bd6aa809189f7a217052,42.314592,-122.81544699999999
Extreme Fresh,Juice Bar,4bf58dd8d48988d112941735,4c7c287d48c6236af0e96011,42.345131,-122.87806926
Extreme Juice,Juice Bar,4bf58dd8d48988d112941735,4d6c020b306aa1cd0cdd1e24,42.35131072998047,-122.86821746826172
Extreme Juice,Juice Bar,4bf58dd8d48988d112941735,4f738235e4b05b6a6926f80b,42.34520007385796,-122.87802839595479
D's Frutas,Juice Bar,4bf58dd8d48988d112941735,5a2b4a59840fc25f1d7f3935,42.339646,-122.86984199999999
Extreme Juice,Juice Bar,4bf58dd8d48988d112941735,4bb3a30d2397b713646838b3,42.34518975,-122.868669
Xerxes Mediterranean Grill,Mediterranean Restaurant,4bf58dd8d48988d1c0941735,5aac5d972619ee594eaa3d70,42.181993,-122.684243
Taco Bell,Mexican Restaurant,4bf58dd8d48988d1c1941735,4c1047bcf1b6a593a4be7b27,42.425717247347606,-122.85124911960875
Amigos,Mexican Restaurant,4bf58dd8d48988d1c1941735,4be4c25c2457a59371bfaa15,42.314459669300376,-122.81539642338704
La Casa del Pueblo,Mexican Restaurant,4bf58dd8d48988d1c1941735,4c2ff3d9a0ced13aec85116e,42.18693426803348,-122.69440892532663
Mezcal,Mexican Restaurant,4bf58dd8d48988d1c1941735,5d4628719ee86a0007e7c33c,42.19704818725586,-122.71601867675781
Milagros,Mexican Restaurant,4bf58dd8d48988d1c1941735,501eec47e4b004b1c70f0c03,42.185062,-122.688957
El Tapatio,Mexican Restaurant,4bf58dd8d48988d1c1941735,4c0dcc8a5272d13a1800df5b,42.21778399684094,-122.73655553335675
Tacos Michel,Mexican Restaurant,4bf58dd8d48988d1c1941735,4e14d89652b1b9e5643b233b,42.286218,-122.832073
Chipotle Mexican Grill,Mexican Restaurant,4bf58dd8d48988d1c1941735,5bf9ae0a5455b2002c83e406,42.3083033,-122.8513292
Joe's Restaurant,Mexican Restaurant,4bf58dd8d48988d1c1941735,535eb270498ea7785e01a54a,42.278289794921875,-122.82041931152344
El Comal,Mexican Restaurant,4bf58dd8d48988d1c1941735,5d39d8b607c75f00077c05d0,42.278871,-122.82118999999999
Tarasco Mexican Restaurant,Mexican Restaurant,4bf58dd8d48988d1c1941735,4f327c5819836c91c7dc7127,42.3205680847168,-122.86634063720703
Taqueria Los Gomez,Mexican Restaurant,4bf58dd8d48988d1c1941735,5ad13744cf72a02ec7cda9bb,42.325168,-122.870651
Octavio’s La Burrita Mexican Restaurant,Mexican Restaurant,4bf58dd8d48988d1c1941735,5b8eca04bcbf7a002cbae77f,42.324251000000004,-122.907175
"Las Coronas Mexican Restaurant, Medford",Mexican Restaurant,4bf58dd8d48988d1c1941735,4f32250719836c91c7ba8849,42.311981201171875,-122.89388275146484
Taco Bell,Mexican Restaurant,4bf58dd8d48988d1c1941735,4bf6f485b182c9b6c3d4745a,42.32335257956657,-122.90040699355569
Luna Mexican Cuisine,Mexican Restaurant,4bf58dd8d48988d1c1941735,5cc922f26f0aa2002c1a22a2,42.3127145,-122.8581946
Los Arcos,Mexican Restaurant,4bf58dd8d48988d1c1941735,4bba31177421a593e481c340,42.339234999999995,-122.89126
El Gallo Mexican Supermarket,Mexican Restaurant,4bf58dd8d48988d1c1941735,4bddddedffdec928ddbfe6a1,42.3239,-122.896034
Del Taco,Mexican Restaurant,4bf58dd8d48988d1c1941735,5948179a65cdf867905c3eaa,42.315452,-122.858407
Las Palmas Mexican Restaurant,Mexican Restaurant,4bf58dd8d48988d1c1941735,4bf308a894af2d7fad073972,42.313709,-122.966641
El Arriero,Mexican Restaurant,4bf58dd8d48988d1c1941735,4baad64af964a5208e893ae3,42.32390779650914,-122.90006673468847
XI LA KIL Latin Fusion,Mexican Restaurant,4bf58dd8d48988d1c1941735,59275fcb5c6838521025431b,42.311161041259766,-122.85372924804688
Guadalajara Mexican Restaurant,Mexican Restaurant,4bf58dd8d48988d1c1941735,4c941db072dd224bc6449791,42.352129,-122.86833899999999
El Arriero Barnett,Mexican Restaurant,4bf58dd8d48988d1c1941735,51be68b3498e121ab8ce4da9,42.316814,-122.86173899999999
Ordaz’s Taqueria,Mexican Restaurant,4bf58dd8d48988d1c1941735,54c1a2d1498ef486a9938f10,42.326564,-122.869806
La Torta Loca,Mexican Restaurant,4bf58dd8d48988d1c1941735,5a284ea42632ec6fee6b766f,42.312558,-122.880478
Carl's Jr. / Green Burrito,Mexican Restaurant,4bf58dd8d48988d1c1941735,4bf5e0ca94b2a593a295acee,42.361290674581326,-122.8575273035317
Si Casa Flores,Mexican Restaurant,4bf58dd8d48988d1c1941735,4b9b134cf964a520c6f035e3,42.316814,-122.86173899999999
Señor Sam's,Mexican Restaurant,4bf58dd8d48988d1c1941735,4bd209cf9854d13a60cefa4d,42.37486,-122.919302
Casa Ramos Mexican Restaurant,Mexican Restaurant,4bf58dd8d48988d1c1941735,4b6e16bdf964a5209ea92ce3,42.339048999999996,-122.87723500000001
El Tapatio Medford,Mexican Restaurant,4bf58dd8d48988d1c1941735,5cbbc2ec1ffed7002c2578fd,42.341952,-122.87253
Taqueria el gallo,Mexican Restaurant,4bf58dd8d48988d1c1941735,4de7e28b45dda9e8a3374bf6,42.323974,-122.896248
Taco Riendo,Mexican Restaurant,4bf58dd8d48988d1c1941735,50f1be35e4b0c609c22297ef,42.37627402481784,-122.88199680380606
La Fiesta,Mexican Restaurant,4bf58dd8d48988d1c1941735,4c3fa18cd691c9b6bf0f8a0a,42.314372,-122.96895400000001
El Metate - Mexican Restaurant,Mexican Restaurant,4bf58dd8d48988d1c1941735,5b2ba6d690d1ed0039298b5d,42.351620000000004,-122.85454399999999
El Albanil,Mexican Restaurant,4bf58dd8d48988d1c1941735,4d4c633f9f79f04d35f4232b,42.369577,-122.913657
Muchas Gracias,Mexican Restaurant,4bf58dd8d48988d1c1941735,4dcd837b7d8b975f18b77688,42.34503315560331,-122.87768125534058
Señor Sam's,Mexican Restaurant,4bf58dd8d48988d1c1941735,4bec5115b68520a109f11187,42.333401,-122.86508799999999
Señor Sam's,Mexican Restaurant,4bf58dd8d48988d1c1941735,4be8b9bb9a54a59360620a11,42.184683,-122.687164
Señor Sam's,Burrito Place,4bf58dd8d48988d153941735,4da65624fa8c94f8b84d89ed,42.31435358225913,-122.8621244430542
Baja Fresh,Burrito Place,4bf58dd8d48988d153941735,58ebff77fb9d89351324eee0,42.332761,-122.867632
Taco Delite,Taco Place,4bf58dd8d48988d151941735,4bf19e2c189f0f47837ab762,42.409481048583984,-122.88571166992188
Las Morenas,Taco Place,4bf58dd8d48988d151941735,4bae5cf9f964a5201fa83be3,42.333696,-122.873244
Taco Delight,Taco Place,4bf58dd8d48988d151941735,4cb0cdc31168a093640e2e23,42.347119,-122.874214
El Paraiso,Mexican Restaurant,4bf58dd8d48988d1c1941735,4da0f43ebf22a1436fbf90f8,42.18403576972626,-122.6641740293436
Plancha Modern Mexican & Tequila,Taco Place,4bf58dd8d48988d151941735,5957cf368a6f17723f582adf,42.196301,-122.713122
Word On The Street!,Food Truck,4bf58dd8d48988d1cb941735,5b6f91a7286fda002c6c72b4,42.329941830513015,-122.86732600997345
El Kora,Mexican Restaurant,4bf58dd8d48988d1c1941735,4c86dfb251ada1cd64bb4310,42.335201,-122.87996113300323
Taqueria El Gallo,Taco Place,4bf58dd8d48988d151941735,4be5a9f4cf200f479683133c,42.319615999999996,-122.87414
TacoRiendo,Taco Place,4bf58dd8d48988d151941735,4d0fcf39b765224bace0e632,42.361107000000004,-122.87966599999999
Jose's Tacos,Taco Place,4bf58dd8d48988d151941735,53371303498e10f2211fa5b5,42.326483,-122.869705
Rico's Tacos,Food Truck,4bf58dd8d48988d1cb941735,4c5d96702815c928a033b567,42.330168668381255,-122.87139654291997
Agave,Mexican Restaurant,4bf58dd8d48988d1c1941735,4a85e57ef964a5208dff1fe3,42.19848865541611,-122.71590005234262
Tacos Mi Tierra,Taco Place,4bf58dd8d48988d151941735,4d2379f014f2b1f7a06066be,42.32517404359888,-122.87083625793457
Taco Time,Taco Place,4bf58dd8d48988d151941735,4c684e66f984a5937b9e49f4,42.35150146484375,-122.85462188720703
Ricos Tacos,Food Truck,4bf58dd8d48988d1cb941735,5a70747fa35dce4fc8de0be1,42.329966897375215,-122.87202715873717
Taco Pancho,Taco Place,4bf58dd8d48988d151941735,4d0691b6e8d85941c1c02fa6,42.34116223740899,-122.87909614102101
Falafel Republic,Israeli Restaurant,56aa371be4b08b9a8d573529,5a6d11aa6c08d124584bbf19,42.18497085571289,-122.68885040283203
Tony's Pizzeria,Pizza Place,4bf58dd8d48988d1ca941735,4d531f54d7d76a31adec72c2,42.47232437133789,-122.80175018310547
Domino's Pizza,Pizza Place,4bf58dd8d48988d1ca941735,5b9a03e966f3cd002cc77547,42.465046576823504,-122.81310217790985
Figaro's Pizza,Pizza Place,4bf58dd8d48988d1ca941735,4cb672fb589f236ae8f8373d,42.473966,-122.811158
Pie + Vine,Italian Restaurant,4bf58dd8d48988d110941735,56abe65c498efe203490ad6f,42.194826,-122.71085500000001
Morrtons,Pizza Place,4bf58dd8d48988d1ca941735,5161031fe4b0d61dc89ea08e,42.314535,-122.81599299999999
Little Caesars Pizza,Pizza Place,4bf58dd8d48988d1ca941735,5021bde8e4b04ac74d0ebe0d,42.184646,-122.688673
Papa Murphy's | Take 'N' Bake Pizza,Pizza Place,4bf58dd8d48988d1ca941735,4bc91c9cb6c49c7488f58d91,42.18524505828509,-122.69083717745626
The Grotto,Pizza Place,4bf58dd8d48988d1ca941735,4ba2969bf964a520e80638e3,42.24497681674434,-122.78789659863612
Figaro's Pizza,Pizza Place,4bf58dd8d48988d1ca941735,4c05df26d3842d7f01e0be41,42.246096,-122.781944
Mystic Treats,Pizza Place,4bf58dd8d48988d1ca941735,4ef53146b8f77e0f98b7ab8b,42.24563298817601,-122.78498758181102
Mountain Mike's Pizza,Pizza Place,4bf58dd8d48988d1ca941735,4bf3494794af2d7f4e623972,42.31495467642785,-122.83391050619213
Figaro's Pizza,Pizza Place,4bf58dd8d48988d1ca941735,57ff0d5d38faf6f1b75c532b,42.275639,-122.817421
Beerworks,Beer Garden,4bf58dd8d48988d117941735,4e16548cd4c0c7a8fbb19547,42.32731117074624,-122.870913120554
Kaleidoscope To-Go,Pizza Place,4bf58dd8d48988d1ca941735,5a221f7925fb7b50c5fef380,42.360473,-122.856576
Jackson Creek Pizza,Pizza Place,4bf58dd8d48988d1ca941735,4c64446039732d7fd549d4fe,42.32486647214798,-122.89978168087087
Jackson Creek Pizza,Pizza Place,4bf58dd8d48988d1ca941735,517591b0e4b0199b48304cce,42.36405369503588,-122.86042342323228
Abby's Legendary Pizza,Pizza Place,4bf58dd8d48988d1ca941735,4c86f07fe602b1f73f48c47a,42.377835,-122.911064
Bobbio's Pizza,Pizza Place,4bf58dd8d48988d1ca941735,4b5234edf964a520d26f27e3,42.37445762977703,-122.91408450646331
Abby's Pizza,Pizza Place,4bf58dd8d48988d1ca941735,4bd889e935aad13acd2291f3,42.354596,-122.86838200000001
Little Caesars Pizza,Pizza Place,4bf58dd8d48988d1ca941735,4c3bdb807d00d13a5c3c3850,42.376951,-122.90676
Papa Murphy's,Pizza Place,4bf58dd8d48988d1ca941735,4c6df510a437224b6dd02eb1,42.374642368958455,-122.91683743248885
Papa Murphy's,Pizza Place,4bf58dd8d48988d1ca941735,4cd7834fb6962c0ffaef2f96,42.34061887611688,-122.86974937542493
"Papa John's Pizza - We've moved to 1250 Biddle Rd, Medford, OR 97504",Pizza Place,4bf58dd8d48988d1ca941735,4bc52e256c26b7137110ebf3,42.323322431178326,-122.89903956238106
Pizza Hut,Pizza Place,4bf58dd8d48988d1ca941735,4bcba1b23740b71389f36265,42.31257074145312,-122.85523133083404
Pizza Hut,Pizza Place,4bf58dd8d48988d1ca941735,4bd7ad100b779c745bcb05a0,42.369453,-122.91296000000001
Bobbio's Pizza,Pizza Place,4bf58dd8d48988d1ca941735,53d946cf498ed1b5bc2cd1b0,42.351272,-122.853683
Little Caesars Pizza,Pizza Place,4bf58dd8d48988d1ca941735,4b6cc93bf964a5204b542ce3,42.333495,-122.86268700000001
Paisans Pizzeria,Pizza Place,4bf58dd8d48988d1ca941735,51636680e4b076220deefa89,42.32501829925645,-122.87060215267427
Papa John's Pizza,Pizza Place,4bf58dd8d48988d1ca941735,4b4946d7f964a5202d6c26e3,42.34186534014763,-122.87179179323675
Oregon Bee Store,Café,4bf58dd8d48988d16d941735,5197d126498ea88ef6ab8ba4,42.515899,-122.811713
Miguel's,Mexican Restaurant,4bf58dd8d48988d1c1941735,4bc1239d920eb713a6551a2c,42.4640365443548,-122.8142728444936
Schmizza Pub & Grub - Eagle Point,Pizza Place,4bf58dd8d48988d1ca941735,50d0ecf55262ea91c227c094,42.46430986999909,-122.81406165779566
Crackin & Stackin,American Restaurant,4bf58dd8d48988d14e941735,5908d6c21543c772f99f736a,42.457941999999996,-122.815009
Chan's,Chinese Restaurant,4bf58dd8d48988d145941735,4ca4d98b750ca09386f82467,42.47314734955802,-122.80311820545303
Abby's Legendary Pizza,Pizza Place,4bf58dd8d48988d1ca941735,4deeeef1fa76c1ceac8739a5,42.473144,-122.81134899999999
KFC,Restaurant,4bf58dd8d48988d1c4941735,4be7827d947820a18df0b3db,42.37610100000001,-122.90025094419764
Schmizza Pub & Grub,Pizza Place,4bf58dd8d48988d1ca941735,53275dab498e71c94ad1d960,42.376383000000004,-122.904296
Misoya Bistro,Asian Restaurant,4bf58dd8d48988d142941735,4dbf1913f7b115b875c2f94b,42.32634667673753,-122.87163812946206
Ahuva Bagels,Bagel Shop,4bf58dd8d48988d179941735,4c532e5430f92d7f3ee15cb8,42.340718465789585,-122.86967981878226
Habañero's Mexican Restaurant,Mexican Restaurant,4bf58dd8d48988d1c1941735,4b9e9b3cf964a52054f336e3,42.327709035621986,-122.8742707532607
Parkside Café,American Restaurant,4bf58dd8d48988d14e941735,4c3cc0d8980320a1b11d8be4,42.33044660904898,-122.86704890359094
Brickroom,Bistro,52e81612bcbc57f1066b79f1,53ed615d498ea1eca8112038,42.197385133832185,-122.71581072740209
Bambu,Asian Restaurant,4bf58dd8d48988d142941735,4bad7f44f964a5209a563be3,42.31485185916625,-122.81592704933853
Creekside Pizza Bistro,Pizza Place,4bf58dd8d48988d1ca941735,4ada4152f964a520952021e3,42.198456160409435,-122.71576077046588
Sauce,Indian Restaurant,4bf58dd8d48988d10f941735,4f0e0837e4b0d8e3c119bd6d,42.18454809623234,-122.68700835072522
Taqueria Picaro,Mexican Restaurant,4bf58dd8d48988d1c1941735,5516264b498e2c7440965f65,42.196847,-122.71361100000001
The Black Sheep Pub & Restaurant,English Restaurant,52e81612bcbc57f1066b7a05,4b5d0176f964a520934e29e3,42.197718622974584,-122.71569469413531
Northwest Pizza & Pasta Co.,Pizza Place,4bf58dd8d48988d1ca941735,4ca52c4b14c3370454fab33b,42.183627,-122.687028
New Sammy's Cowboy Bistro,American Restaurant,4bf58dd8d48988d14e941735,4bbe90ad85fbb713de0d7167,42.228586,-122.755623
Panda Express,Chinese Restaurant,4bf58dd8d48988d145941735,54836917498ee5d2bdc49c98,42.308933466516926,-122.85370592573175
Cracker Barrel Old Country Store,American Restaurant,4bf58dd8d48988d14e941735,5bcddf73898bdc002c2a962b,42.309268951416016,-122.8509750366211
Abby's Legendary Pizza,Pizza Place,4bf58dd8d48988d1ca941735,4b4a448ef964a520838126e3,42.315413,-122.86308600000001
La Tapatia,Mexican Restaurant,4bf58dd8d48988d1c1941735,4babc5d4f964a52055c83ae3,42.27318788315332,-122.81435945785255
Shoji's,Asian Restaurant,4bf58dd8d48988d142941735,510ddb95e4b0a3ee4fbe9862,42.31499895653678,-122.83401104014243
The Iron Skillet,Diner,4bf58dd8d48988d147941735,4c361dec1e06d13a33ab733e,42.27956716298489,-122.81160101294518
Domino's Pizza,Restaurant,4bf58dd8d48988d1c4941735,52d2325f498e337872d434aa,42.313279,-122.85938999999999
Papa Murphy's,Pizza Place,4bf58dd8d48988d1ca941735,4bae9f55f964a520d8c73be3,42.312454,-122.878
Talent Café,Café,4bf58dd8d48988d16d941735,4c0c1399009a0f47411aecbf,42.24638196657436,-122.78520337686692
Cracker Barrel,American Restaurant,4bf58dd8d48988d14e941735,5bc8cbafc58ed7002c5bba72,42.308372,-122.852371
Pomodori Ristorante,Italian Restaurant,4bf58dd8d48988d110941735,4b775d5ef964a52063952ee3,42.312097,-122.8938
Debby's Diner,American Restaurant,4bf58dd8d48988d14e941735,4c61b7aae1621b8d18bd2153,42.28430402587232,-122.82916515468892
Muchas Gracias,Mexican Restaurant,4bf58dd8d48988d1c1941735,4b94598bf964a520c37534e3,42.323421,-122.899944
Frau Kemmling Schoolhaus Brewhaus,German Restaurant,4bf58dd8d48988d10d941735,4c8997761eafb1f74e3c7335,42.31529153154102,-122.96150416143428
Fiesta Market & Taqueria,Mexican Restaurant,4bf58dd8d48988d1c1941735,4f4332c819834bc91f55483d,42.31289,-122.888348
McDonald's,Restaurant,4bf58dd8d48988d1c4941735,4b9a5fbdf964a520d2af35e3,42.281304,-122.817436
Jalapeño's Taco Shop,Taco Place,4bf58dd8d48988d151941735,5296523111d299f423605cad,42.294115999999995,-122.839824
Angelo's Pizza Parlor,Pizza Place,4bf58dd8d48988d1ca941735,4be24207f07b0f470c37f543,42.323325,-122.89716899999999
Barney's Better Burgers,Burger Joint,4bf58dd8d48988d16c941735,4c800c4fe602b1f70521867a,42.33168133472213,-122.87300919885192
The Real Deal Cafe,Breakfast Spot,4bf58dd8d48988d143941735,4d7bccdb73ca5481db8d527c,42.31273267660231,-122.88047543855143
Black Bear Diner,Diner,4bf58dd8d48988d147941735,5490bc7f498e225b492328ca,42.31544759718098,-122.85063106446303
Five Guys,Burger Joint,4bf58dd8d48988d16c941735,5baf0d80bd40090039dee929,42.308692,-122.85124
MOD Pizza,Restaurant,4bf58dd8d48988d1c4941735,5d0a98e38b98fd002c6031f6,42.30941028,-122.85147629
Bonsai Teriyaki,Asian Restaurant,4bf58dd8d48988d142941735,4b74bb8af964a52021ef2de3,42.31527124414119,-122.84498922623196
Esaan Thai Cafe,Thai Restaurant,4bf58dd8d48988d149941735,586b135cd98f36050f19c4ef,42.280066,-122.823218
Applebee's Grill + Bar,Restaurant,4bf58dd8d48988d1c4941735,4b6bb53ff964a52045162ce3,42.34325756,-122.8729046
La Burrita,Mexican Restaurant,4bf58dd8d48988d1c1941735,4fa069a0e4b0dae72d8c8801,42.3241044620339,-122.90704113650614
Angelo's Pizza,Pizza Place,4bf58dd8d48988d1ca941735,4d2d0e25ae3a8cfab50bc270,42.279073,-122.821626
The Honeysuckle Cafe,Café,4bf58dd8d48988d16d941735,55ec75a3498e8edb0a8f8db8,42.239709,-123.037249
Mazatlan,Mexican Restaurant,4bf58dd8d48988d1c1941735,4baecf60f964a520f5d93be3,42.37679324053667,-122.90392445974865
Patties Kitchen,American Restaurant,4bf58dd8d48988d14e941735,4c4c8501959220a1d5762f11,42.431288,-123.050482
Hawaiian Hut,Hawaiian Restaurant,52e81612bcbc57f1066b79fe,4f63a9a4e4b0c65cc3960b56,42.377474372101574,-122.90470362639284
Mustard Seed Cafe,American Restaurant,4bf58dd8d48988d14e941735,4c59b4a6b05c1b8dd26fd6b1,42.314136,-122.965397
Yellow Basket,Burger Joint,4bf58dd8d48988d16c941735,4c127ea782a3c9b67ad3f9f8,42.372493,-122.916251
C Street Bistro,New American Restaurant,4bf58dd8d48988d157941735,4d8e4f506174a0934d7dc5e3,42.3143853165376,-122.96600103378296
Umi Sushi,Japanese Restaurant,4bf58dd8d48988d111941735,4f47f3cae4b024e50b977f5c,42.314106277516856,-122.9676387977869
Miguel's,Mexican Restaurant,4bf58dd8d48988d1c1941735,4c377c301e06d13a7e07763e,42.432419,-123.048786
Sawyer Station,American Restaurant,4bf58dd8d48988d14e941735,56edc118498e46774829f518,42.431089,-123.049275
Figaro's Pizza,Pizza Place,4bf58dd8d48988d1ca941735,4e6d5af42271a8cabfc7c6a7,42.43112313995626,-123.04616993977885
McDonald's,Restaurant,4bf58dd8d48988d1c4941735,4bf2ba3f9319a593e243cb51,42.42451598074671,-122.85163901746273
Little Caesars Pizza,Pizza Place,4bf58dd8d48988d1ca941735,4d5ecfa4338bb60cfc2b14bd,42.437621,-122.83831299999999
Abby's Pizza,Pizza Place,4bf58dd8d48988d1ca941735,4c37ea49ae2da5937ee2ffc5,42.425119,-122.849811
Fiesta Market & Taqueria,Mexican Restaurant,4bf58dd8d48988d1c1941735,4fed0a56e4b00a5fd373dddc,42.33655694824825,-122.8748426115842
Bobbio's Pizza,Restaurant,4bf58dd8d48988d1c4941735,4d090e33d8b96a3187d8758f,42.426901537968554,-122.8504729270935
The Apple Peddler,American Restaurant,4bf58dd8d48988d14e941735,4be5bc812457a5937aebab15,42.423995998237636,-122.85190301435149
Ling's,Chinese Restaurant,4bf58dd8d48988d145941735,4ef40011b6342877b7dc64bc,42.42757103906004,-122.85062786083718
El Molcajete,Mexican Restaurant,4bf58dd8d48988d1c1941735,52abd29811d2a89bdfbff32e,42.3119628482302,-122.89379510457334
Diner 62,Diner,4bf58dd8d48988d147941735,51f6afee498ed93181694383,42.41433387804421,-122.85635595427934
Chipotle Mexican Grill,Mexican Restaurant,4bf58dd8d48988d1c1941735,508454f7e4b08a31a93c4dd5,42.344575864632276,-122.88144804598062
Ram Restaurant & Brewery,American Restaurant,4bf58dd8d48988d14e941735,58959b4b34935539da6fed17,42.34287591808428,-122.88329276444303
Star Sushi,Sushi Restaurant,4bf58dd8d48988d1d2941735,4ba94f14f964a520821d3ae3,42.340645848610365,-122.87005674014807
Bella Union,Italian Restaurant,4bf58dd8d48988d110941735,4acaa977f964a520c0c220e3,42.31451569636234,-122.96823298294372
Back Porch BBQ,BBQ Joint,4bf58dd8d48988d1df931735,4b8c6f88f964a520bbd032e3,42.317642,-122.96320800000001
Papa Murphy's | Take 'N' Bake Pizza,Restaurant,4bf58dd8d48988d1c4941735,4c78607a3badb1f7d5ba4b54,42.42416743136113,-122.8518260401966
Jaspers,Burger Joint,4bf58dd8d48988d16c941735,4b4c8e81f964a52008b626e3,42.34987389763969,-122.8933744791849
Erawan Thai Cuisine,Thai Restaurant,4bf58dd8d48988d149941735,56dfabd6498e893a88d2efd9,42.33711879735935,-122.86058389751027
MOD Pizza,Pizza Place,4bf58dd8d48988d1ca941735,5893eba51ac004091d854d46,42.342338,-122.883609
4 Daughters Irish Pub,Irish Pub,52e81612bcbc57f1066b7a06,4b4621fef964a5208b1726e3,42.325199315336576,-122.87493588326797
Rooster's,American Restaurant,4bf58dd8d48988d14e941735,4bd1fc7eb221c9b6daa9d6d0,42.315403659152466,-122.85906007207056
Lemon Grass Thai Cuisine,Thai Restaurant,4bf58dd8d48988d149941735,4bec93b6976ac928ee41610b,42.323858,-122.90010500000001
Jake's Wayback Burgers,Burger Joint,4bf58dd8d48988d16c941735,516b56b7498ed741f3596193,42.342159192323535,-122.87112049570084
Rosario's Italian Restaurant,Italian Restaurant,4bf58dd8d48988d110941735,4ba59381f964a520af1339e3,42.323293,-122.89821
Mucho Gusto,Mexican Restaurant,4bf58dd8d48988d1c1941735,4b57f9a9f964a520c14728e3,42.34204625437923,-122.86994936099218
Donut Country,Donut Shop,4bf58dd8d48988d148941735,4b647653f964a52022b52ae3,42.33130013838125,-122.85777165630654
Siam Cafe,Thai Restaurant,4bf58dd8d48988d149941735,4ba3d2f9f964a5207c6338e3,42.32385277748108,-122.87923157215118
Cicily's Pastaria & Grill,Italian Restaurant,4bf58dd8d48988d110941735,4e166c55c65be9c55e85ce14,42.34193766772852,-122.8705294806068
Great Harvest Bread Co,Bakery,4bf58dd8d48988d16a941735,4c95123af7cfa1cd04fcb915,42.32971593599767,-122.86622816385092
Kaleidoscope Pizzeria & Pub,Pizza Place,4bf58dd8d48988d1ca941735,4b5b9aa4f964a520600a29e3,42.361278207858085,-122.8572452577694
Wild River Medford,Pizza Place,4bf58dd8d48988d1ca941735,4b46df5af964a5201d2926e3,42.34932268999498,-122.89067235408854
Breadboard,Breakfast Spot,4bf58dd8d48988d143941735,4b9bdf55f964a520d42f36e3,42.20897338098208,-122.7230833237633
Olive Garden,Italian Restaurant,4bf58dd8d48988d110941735,4bb829e053649c748bd446fb,42.36178038276881,-122.85913214444922
Standing Stone Brewing Company,Brewery,50327c8591d4c4b30a586d5d,4b68f1d7f964a52044942be3,42.197620691396516,-122.71448740249782
House Of Thai,Thai Restaurant,4bf58dd8d48988d149941735,4c95912094a0236a14d89712,42.18277,-122.68558200000001
NoHo's Hawaiian Cafe,Restaurant,4bf58dd8d48988d1c4941735,4bc0c32a461576b0cab57a32,42.340963045049634,-122.87939911601006
Jacksonville Inn,Restaurant,4bf58dd8d48988d1c4941735,4be065552aed2d7ff438c86f,42.31423425962568,-122.96716270932247
Macaroni's Ristorante,Italian Restaurant,4bf58dd8d48988d110941735,4b8887c7f964a520a2fe31e3,42.196869193626085,-122.71448860754353
Gogi's Restaurant,Restaurant,4bf58dd8d48988d1c4941735,4b915e91f964a520deb633e3,42.31416632236835,-122.96927062856348
Amuse,American Restaurant,4bf58dd8d48988d14e941735,4c54d69a72cf0f4712c129d5,42.196427,-122.712174
Sunrise Cafe & Catering,Restaurant,4bf58dd8d48988d1c4941735,4bbfe4872a89ef3ba3d6ef88,42.326472837678374,-122.87236858041395
Subway,Sandwich Place,4bf58dd8d48988d1c5941735,4ee662829adf398201504847,42.42639848428354,-122.84910768537702
Big Town Hero,Sandwich Place,4bf58dd8d48988d1c5941735,4c1a72ecb4e62d7f40d3d793,42.376951,-122.90676
Jimmy John's,Sandwich Place,4bf58dd8d48988d1c5941735,51ad24a9498eb0e71a074d9d,42.333506987578694,-122.86255650317455
Squeeze Inn Sandwich Shop,Sandwich Place,4bf58dd8d48988d1c5941735,4b86e1b2f964a520aaa331e3,42.335326,-122.86144399999999
Buttercloud Bakery & Cafe,Sandwich Place,4bf58dd8d48988d1c5941735,4eb6d415469073bbc6bd431e,42.32323855520578,-122.87010669708253
Subway,Sandwich Place,4bf58dd8d48988d1c5941735,4c252690f1272d7f094b84c5,42.474005876042376,-122.81141622547591
Sammich,Sandwich Place,4bf58dd8d48988d1c5941735,51967b19498e78ef53d6121d,42.186964,-122.69363500000001
R & D's Sandwich Factory,Sandwich Place,4bf58dd8d48988d1c5941735,4b673bb8f964a520d8422be3,42.337788,-122.875348
Little Shop Of Bagels,Bagel Shop,4bf58dd8d48988d179941735,4bcc9348b6c49c74bdf89391,42.184302545234196,-122.68694732392512
Subway,Sandwich Place,4bf58dd8d48988d1c5941735,4c6ce16f1585ef3ba1e9079e,42.34521526624563,-122.87306545921001
Firehouse Subs,Sandwich Place,4bf58dd8d48988d1c5941735,4baf1ccaf964a520daeb3be3,42.33203,-122.8671
Jimmy John's,Sandwich Place,4bf58dd8d48988d1c5941735,57840502498eb75e538a947c,42.31412,-122.861985
Luigi's,Sandwich Place,4bf58dd8d48988d1c5941735,4c40b552da3dc9287fc5c7b9,42.34268271139285,-122.87892664931779
Pita Pit,Sandwich Place,4bf58dd8d48988d1c5941735,4b7df504f964a5200bdc2fe3,42.360725,-122.860036
Subway,Sandwich Place,4bf58dd8d48988d1c5941735,4e21e59118a88345f050f675,42.27549881622781,-122.81730652424221
Subway,Sandwich Place,4bf58dd8d48988d1c5941735,4b802397f964a520bf5530e3,42.36308248345575,-122.85987934492374
Subway,Sandwich Place,4bf58dd8d48988d1c5941735,4d1a48dd85fc6dcb1c8bc44e,42.31466072447964,-122.81533278480487
Subway,Sandwich Place,4bf58dd8d48988d1c5941735,4b79bb96f964a520540e2fe3,42.341709,-122.859897
The HoneyBaked Ham Company,Sandwich Place,4bf58dd8d48988d1c5941735,4c5cab046147be9a8f099009,42.334389,-122.86783500000001
Subway,Sandwich Place,4bf58dd8d48988d1c5941735,4c464d7d9be820a1fb7c7993,42.300854,-122.85101200000001
Subway,Sandwich Place,4bf58dd8d48988d1c5941735,4c36261393db0f4736941d92,42.32383719350667,-122.90029142813393
Subway,Sandwich Place,4bf58dd8d48988d1c5941735,4bf4064f94af2d7fea113a72,42.37798233953609,-122.89914958584382
Berg's Bakery & Bistro,Bakery,4bf58dd8d48988d16a941735,4f5a466ce4b00833d94374ca,42.324219,-122.873847
Subway,Sandwich Place,4bf58dd8d48988d1c5941735,4b86c80bf964a520ce9c31e3,42.31235770013904,-122.85489279429538
Heros,Sandwich Place,4bf58dd8d48988d1c5941735,582e11a024fd71430ddc619d,42.339707,-122.869862
Subway,Sandwich Place,4bf58dd8d48988d1c5941735,4c169cdf96040f47bf1c73a5,42.24676146301386,-122.78588946552804
Adam's Deli & Catering,Restaurant,4bf58dd8d48988d1c4941735,4d4c6a2f855b54814984e78f,42.318799,-122.82849399999999
Subway,Sandwich Place,4bf58dd8d48988d1c5941735,4cb604ea1b0af04db295cd25,42.344215884134194,-122.87751487095511
Subway,Sandwich Place,4bf58dd8d48988d1c5941735,4becaae3bbe62d7fa03d7f2b,42.18752945353616,-122.69536561686238
Subway,Sandwich Place,4bf58dd8d48988d1c5941735,4ba3d76ef964a5206c6538e3,42.186743985605034,-122.67003188692962
City Grinders,Sandwich Place,4bf58dd8d48988d1c5941735,4dadd9bb1e72b2444e4a89bb,42.42738799,-122.84830185
Subway,Sandwich Place,4bf58dd8d48988d1c5941735,5e13a2894a505500085fb367,42.36700676487845,-122.8595530969589
Cinnabon,Sandwich Place,4bf58dd8d48988d1c5941735,52df19a7498e824a1ebf48be,42.3787,-122.89989
Basil & Berries,Sandwich Place,4bf58dd8d48988d1c5941735,53816688498e5da6508219ee,42.34525680541992,-122.87812805175781
Martolli's Hand Tossed Pizza,Pizza Place,4bf58dd8d48988d1ca941735,4b8090c6f964a5204b7d30e3,42.19714627437217,-122.714965779593
Red Lobster,Seafood Restaurant,4bf58dd8d48988d1ce941735,4b47f6e6f964a520454526e3,42.348604,-122.877982
The Buthcher Shop,Butcher,4bf58dd8d48988d11d951735,4d3b326234ee37040e54809b,42.46008,-122.816474
The Wharf,Seafood Restaurant,4bf58dd8d48988d1ce941735,4b6891a5f964a52064802be3,42.33083446670964,-122.89151113957118
Thai Pepper,Thai Restaurant,4bf58dd8d48988d149941735,4bc8fad13740b71330e25d65,42.19830491529255,-122.71579717333614
Code 3 Coffee & Snacks,Snack Place,4bf58dd8d48988d1c7941735,4f322dd919836c91c7bdf039,42.239543196865334,-123.03743362426758
Bloomsbury Books & Coffeehouse,Bookstore,4bf58dd8d48988d114951735,4b773da2f964a520e08a2ee3,42.19521093910154,-122.71178991826703
Wetzel's Pretzels,Snack Place,4bf58dd8d48988d1c7941735,506d00d5e4b094afe85ba6d7,42.345258,-122.877908
Fred Meyer Fuel Center,Snack Place,4bf58dd8d48988d1c7941735,59243e66b6eedb5ddcedc012,42.35315,-122.8709266
Fred Meyer Fuel Center,Snack Place,4bf58dd8d48988d1c7941735,58a6717def787f06a042d21f,42.31381716924471,-122.85741034298627
The Point Pub & Grill,Pizza Place,4bf58dd8d48988d1ca941735,52780d2b11d22407a499f8dd,42.375596,-122.91511299999999
Artisan Bakery Café,Bakery,4bf58dd8d48988d16a941735,4b87f104f964a5201dd431e3,42.31244168550308,-122.85501212136171
Bonsai Teriyaki,Japanese Restaurant,4bf58dd8d48988d111941735,4c04224e187ec9284aa4b67b,42.18560726171209,-122.67074004926397
Pony Espresso,Café,4bf58dd8d48988d16d941735,55428dc2498e88ffcce91984,42.197106,-122.71243899999999
Shiki Sushi & Thai Resturant,Thai Restaurant,4bf58dd8d48988d149941735,513fa8bbe4b075f69579b7f1,42.328094969874094,-122.87586964182898
McGrath's Fish House,Seafood Restaurant,4bf58dd8d48988d1ce941735,4b74bbe9f964a52040ef2de3,42.313294541873425,-122.85802221434965
Lark's Home Kitchen Cuisine,American Restaurant,4bf58dd8d48988d14e941735,4baeb9faf964a520a1d23be3,42.19605467129263,-122.71268758080977
SooRah Korean Cuisine,Korean Restaurant,4bf58dd8d48988d113941735,54f1450e498ec341174bc3d3,42.327225,-122.872953
Sesame Asian Kitchen,Asian Restaurant,4bf58dd8d48988d142941735,4bef0150ea570f47f3c28ed2,42.196669118068286,-122.71605111763314
Spicers Cafe and Espresso,American Restaurant,4bf58dd8d48988d14e941735,52f4f76c11d2de79b672bc50,42.365,-122.85673500000001
Downtown Market Co.,Restaurant,4bf58dd8d48988d1c4941735,4c40d478520fa59350afc8ac,42.32702462820372,-122.87163900775701
Thai Bistro,Thai Restaurant,4bf58dd8d48988d149941735,4ba51ce4f964a520d5de38e3,42.335104,-122.86881299999999
Thai Garden,Thai Restaurant,4bf58dd8d48988d149941735,4cd46636fb5954812d15d850,42.37549624042602,-122.91581111589952
Café 116,Café,4bf58dd8d48988d16d941735,4ba8f96ef964a52096ff39e3,42.197096730372934,-122.71318827005344
Wamba Smoothie & Food,Soup Place,4bf58dd8d48988d1dd931735,4d9e1f5ebaae548151fc0165,42.323972999999995,-122.874454
Tot,Asian Restaurant,4bf58dd8d48988d142941735,4fce6977e4b0349ae325fd5c,42.199496,-122.712612
Spoons,Soup Place,4bf58dd8d48988d1dd931735,5168bc34e4b07da576b2ab29,42.326961517333984,-122.87287139892578
Sansei Japan,Japanese Restaurant,4bf58dd8d48988d111941735,4be9a4a06295c9b6c3788508,42.34519368,-122.878069
Taroko Pan-Pacific Bistro,Asian Restaurant,4bf58dd8d48988d142941735,4daa76f593a04642f08125c2,42.19678596162726,-122.71440957304384
Howiee's on Front,Southern / Soul Food Restaurant,4bf58dd8d48988d14f941735,4b89735ff964a520713732e3,42.326495611673,-122.87316559755322
Bird & Rye,Southern / Soul Food Restaurant,4bf58dd8d48988d14f941735,5d3a0a21c572f5000782fa27,42.19508361816406,-122.71166229248047
Hannah's Restaurant,Southern / Soul Food Restaurant,4bf58dd8d48988d14f941735,4fd94f32e4b053a8d3a914a9,42.346738492888015,-122.88558203973255
Hannah's BBQ & Catfish,Southern / Soul Food Restaurant,4bf58dd8d48988d14f941735,5074710ae4b0f199475dd8bb,42.346702575683594,-122.88540649414062
Elements,Tapas Restaurant,4bf58dd8d48988d1db931735,4b5696cdf964a520071628e3,42.326276618244314,-122.87309114030745
Ostras! Tapas,Restaurant,4bf58dd8d48988d1c4941735,58f4245c610f04457abd8f1e,42.197561,-122.715685
Mihama Teriyaki Grill,Sri Lankan Restaurant,5413605de4b0ae91d18581a9,4bd1e25e046076b031b87271,42.186633,-122.693582
Roadhouse Grill,Steakhouse,4bf58dd8d48988d1cc941735,4b93034ff964a520b92e34e3,42.32316338338672,-122.90685221945348
Omar's,Steakhouse,4bf58dd8d48988d1cc941735,4b6803a1f964a520ff632be3,42.185126354165035,-122.6915201135878
Texas Roadhouse,Steakhouse,4bf58dd8d48988d1cc941735,519ec712498e9e0bda20e6bc,42.360504,-122.862032
Outback Steakhouse,Steakhouse,4bf58dd8d48988d1cc941735,4b7b5a24f964a520855f2fe3,42.36740620516352,-122.85658847647625
Porters,Steakhouse,4bf58dd8d48988d1cc941735,4b43e886f964a520c7ed25e3,42.32773980559705,-122.87485717996788
Sizzler,Steakhouse,4bf58dd8d48988d1cc941735,4bd8948b11dcc9283feef633,42.33643,-122.87069
Kelton's Steak & Seafood,Steakhouse,4bf58dd8d48988d1cc941735,4c412b2fd691c9b6aa778c0a,42.34189224243164,-122.87047576904297
Elmer’s Restaurant,Breakfast Spot,4bf58dd8d48988d143941735,4b5a073ff964a520b5a828e3,42.34803636005296,-122.87392986734243
The Regency Grill,American Restaurant,4bf58dd8d48988d14e941735,4e29949018a83a13623e3339,42.353076649822775,-122.87354416124123
The Teapot,Tea Room,4bf58dd8d48988d1dc931735,5557904b498e3f77cc557d3f,42.419419,-123.12476799999999
Dobrà Tea,Tea Room,4bf58dd8d48988d1dc931735,53efdf73498e5b95382d1b06,42.198192999999996,-122.716175
Mt Shasta Spring Water,Tea Room,4bf58dd8d48988d1dc931735,59533b2f82a750464c72c1b9,42.38806915283203,-122.86849975585938
ECOTEAS,Tea Room,4bf58dd8d48988d1dc931735,57432556498e9511309e6771,42.19763992171673,-122.7159520983696
Roundtable Tea Company,Tea Room,4bf58dd8d48988d1dc931735,50416322e4b09fb67aa42410,42.327541762969865,-122.86988139152527
Laughing Buddha,Tea Room,4bf58dd8d48988d1dc931735,4de065c47d8b84d5dc6c481a,42.32689927506606,-122.87365257740021
Greenleaf Restaurant,Vegetarian / Vegan Restaurant,4bf58dd8d48988d1d3941735,4b8957edf964a520552d32e3,42.19766442025053,-122.71577592120454
Pangea Grills & Wraps,Vegetarian / Vegan Restaurant,4bf58dd8d48988d1d3941735,4c17efbb4ff90f4703aa0d49,42.19539458477295,-122.71170016365754
Organico's Natural Cafe,Vegetarian / Vegan Restaurant,4bf58dd8d48988d1d3941735,4c532fc9a724e21e009e5af4,42.326633,-122.871475
Melange,Vegetarian / Vegan Restaurant,4bf58dd8d48988d1d3941735,5e3878a2678a8700073cd9ad,42.32735824584961,-122.8699951171875
Buffalo Wild Wings,Wings Joint,4bf58dd8d48988d14c941735,51d2ee9b5a2347d14627b73a,42.36200183180689,-122.86145992953607
Red Robin Gourmet Burgers and Brews,Burger Joint,4bf58dd8d48988d16c941735,4b60a772f964a5207df229e3,42.33143763,-122.869296
Joe's Sports Bar & Grill,Sports Bar,4bf58dd8d48988d11d941735,4bbee41885fbb713f1687167,42.351485449851076,-122.8542194320053
Chadwick's Pub & Sports Bar,Sports Bar,4bf58dd8d48988d11d941735,4b5a40dff964a520b5b728e3,42.353132624292584,-122.87364322725615
RedZone Sports Bar N' Grill,Sports Bar,4bf58dd8d48988d11d941735,4e8123cad22d5265cc0db882,42.19538361132511,-122.71126122153144
Louie's Bar and Grill,American Restaurant,4bf58dd8d48988d14e941735,4adb6384f964a520d62621e3,42.19751516886233,-122.71569598715855
Round Table Pizza,Wings Joint,4bf58dd8d48988d14c941735,4cfaa93de6f48eecaded83a4,42.352344505162634,-122.86832399688915
Jackson Creek Pizza,Pizza Place,4bf58dd8d48988d1ca941735,4ba2dfc2f964a520b11f38e3,42.32729692878025,-122.87102267372094
Great American Pizza,Pizza Place,4bf58dd8d48988d1ca941735,4b94123ef964a520dc6534e3,42.18516871876987,-122.69002822628524
The Lava Sports Bar and Grill,Sports Bar,4bf58dd8d48988d11d941735,4bf75f578d30d13af703ff17,42.35924119182476,-122.86068892366465
Pizza Hut,Pizza Place,4bf58dd8d48988d1ca941735,4b61ee6df964a520f92b2ae3,42.347667744237555,-122.87423193454742
