name,category,category_id,venue_id,lat,long
Mulligans Restuarant,American Restaurant,4bf58dd8d48988d14e941735,4c0eecb8c6cf76b03d998151,46.93574523925781,-119.1316909790039
Super China Buffet II,Sushi Restaurant,4bf58dd8d48988d1d2941735,4cc35cab1e596dcb2a0dca67,47.13772590336888,-119.27748612101918
Tree Cafe,Sushi Restaurant,4bf58dd8d48988d1d2941735,4d2670b5849f3704cc255f41,47.129523999999996,-119.279972
Thai Cuisine,Thai Restaurant,4bf58dd8d48988d149941735,4c7c72faa141b1f7b15a6b79,47.12949986635573,-119.2686564458837
The Q-N-More,BBQ Joint,4bf58dd8d48988d1df931735,5a0e2b791108ba7c13603523,47.174973,-119.31877
Smokeys Dutch Oven Cooking,BBQ Joint,4bf58dd8d48988d1df931735,4c561b5bfb5aa593b702287f,47.150295,-119.304057
Safeway BBQ,BBQ Joint,4bf58dd8d48988d1df931735,574a2067498e7d60991ccbb9,47.130437918517394,-119.26855850553119
Carniceria Los Amigos,Butcher,4bf58dd8d48988d11d951735,52bb77f5498edb88e885948a,47.132090000000005,-119.27004199999999
Pillar Rock Grill,American Restaurant,4bf58dd8d48988d14e941735,4bbbfb2651b89c74da02872a,47.10715622923422,-119.3563056790283
Mom & Pop's Diner,Breakfast Spot,4bf58dd8d48988d143941735,57ad2e45498e6fc43af4bba7,47.126426,-119.287407
The Q-N-More BBQ,BBQ Joint,4bf58dd8d48988d1df931735,5bc7b2cf8a6f17002c2f7486,47.131038878703585,-119.27878386568436
Dragon Express,Chinese Restaurant,4bf58dd8d48988d145941735,55de0ec4498e6e63ce3f0131,47.101716539405544,-119.24762663885576
Simmer,Bistro,52e81612bcbc57f1066b79f1,551afcb4498ea037847dc298,47.130956,-119.278721
Pho Saigon,Vietnamese Restaurant,4bf58dd8d48988d14a941735,4c829844d92ea093b63c4c72,47.129577000000005,-119.27856000000001
Wendy's,Burger Joint,4bf58dd8d48988d16c941735,5b74946f0dd31f002ba13d2b,47.10374069213867,-119.24993133544922
Rocktop Burgers,Burger Joint,4bf58dd8d48988d16c941735,52ce10a6498e7a2cc2f54948,47.14117431640625,-119.2786865234375
Sodexo Kitchens,Cafeteria,4bf58dd8d48988d128941735,53a5e527498e5cd1fc5a313f,47.18527603149414,-119.32731628417969
Jet-a-way Cafe,Café,4bf58dd8d48988d16d941735,5436e1df498ea37460f24a7a,47.190011,-119.32349599999999
ADI Foodmart,Deli / Bodega,4bf58dd8d48988d146941735,4c7a808b2d3ba143fe6691d0,47.116097822283436,-119.2966809447811
Deli Mart & Cafe,Deli / Bodega,4bf58dd8d48988d146941735,4d855c22f1e56ea83f37898a,47.101009368896484,-119.24455261230469
Walmart Bakery,Deli / Bodega,4bf58dd8d48988d146941735,5992cb519ad60e60ff896c08,47.14166439,-119.27836
The Kitchen,Deli / Bodega,4bf58dd8d48988d146941735,51078b7439500a0979421b59,47.13161849975586,-119.23802185058594
Carniceria El Primo,Deli / Bodega,4bf58dd8d48988d146941735,53ba1e44498ed9a71eb38fab,47.132360999999996,-119.27153100000001
Le Tejanita Bakery,Bakery,4bf58dd8d48988d16a941735,4e463ca7091a6b84cc5b074f,47.131122999999995,-119.27573500000001
Franz Bakery Outlet,Bakery,4bf58dd8d48988d16a941735,4e8374d17ee6f1c63cdaa06c,47.12173325637433,-119.26659005568675
Blue Palm Frozen Yogurt,Frozen Yogurt Shop,512e7cae91d4cbb4e5efe0af,4eb32bc19a52547686905bc2,47.14225152028239,-119.27735174887891
Baskin-Robbins,Ice Cream Shop,4bf58dd8d48988d1c9941735,4c2bc790ae6820a1e85c1843,47.13660390426642,-119.27804727704091
J's Teriyaki Grill,Asian Restaurant,4bf58dd8d48988d142941735,4c080019340720a1f9708293,47.131244,-119.277831
Tacos El Rey Taqueria,Food Truck,4bf58dd8d48988d1cb941735,4d03faf89d33a1431102b878,47.123460219216675,-119.29228780430655
Taqueria Morelia,Food Truck,4bf58dd8d48988d1cb941735,4c846020d92ea09375275d72,47.093082587233894,-119.17869833735111
Gosi Artisan Wood-Fired,Food Truck,4bf58dd8d48988d1cb941735,5da101c08a8ebb00089cefbf,47.124847,-119.29029
Soap Lake Businessmen's Club Gyros Booth,Greek Restaurant,4bf58dd8d48988d10e941735,520ea48a11d20f40ef61a38d,47.143307,-119.309334
Chris & Beck's,Greek Restaurant,4bf58dd8d48988d10e941735,57780b17cd108f2f114a3594,47.12464,-119.281105
Chad's Chili Dogs,Hot Dog Joint,4bf58dd8d48988d16f941735,59b1caa5e2d4aa035db3b2fb,47.1423,-119.278435
Home Made Indian Food,Indian Restaurant,4bf58dd8d48988d10f941735,520fe6e611d266f80640408f,47.16351,-119.313003
Orange Julius,Juice Bar,4bf58dd8d48988d112941735,4ef9171fb8f72ebea9be746e,47.119441986083984,-119.26647186279297
Good Vibes Nutrition,Juice Bar,4bf58dd8d48988d112941735,5eebe3539087d80007ce9f01,47.13056,-119.27771
El Chele,Salvadoran Restaurant,5745c7ac498e5d0483112fdb,5e6ea2e4ba8dba0008faaba3,47.13029,-119.278625
Taqueria El Rinconsito,Mexican Restaurant,4bf58dd8d48988d1c1941735,59010e10f8cbd4189149fd36,47.132918,-119.27468300000001
Tacos El Rey Taqueria,Mexican Restaurant,4bf58dd8d48988d1c1941735,4d0a8e9db93b224b56f346bf,47.105281829833984,-119.25204467773438
Taco Del Mar,Mexican Restaurant,4bf58dd8d48988d1c1941735,4bad19b9f964a5208a2d3be3,47.1046129,-119.3096176
Fosters Cabana (Coming Soon!),Mexican Restaurant,4bf58dd8d48988d1c1941735,5b70f59f345cbe002cdcfd75,47.13178,-119.2702
Emperador Azteca,Mexican Restaurant,4bf58dd8d48988d1c1941735,4d5c841eddac721e2af66efe,47.129529,-119.278751
Restaurant y Taqueria Mi Tierra,Mexican Restaurant,4bf58dd8d48988d1c1941735,4d9932b197d06ea8daeb450b,47.130617,-119.280786
Casa Herradura Family Mexican Restaurant,Mexican Restaurant,4bf58dd8d48988d1c1941735,5d6596ab828a120008c9a688,47.13215255737305,-119.2701187133789
Tacos El Rey,Mexican Restaurant,4bf58dd8d48988d1c1941735,4d12932bd0fda0932aeeac57,47.129272,-119.281899
Guido's Brick Oven Pizza & Froyo,Pizza Place,4bf58dd8d48988d1ca941735,52673731498e9634f7763377,47.104854583740234,-119.30977630615234
Pizza Hut,Pizza Place,4bf58dd8d48988d1ca941735,54e3ce48498e9bec976aeb89,47.142452,-119.277413
Papa's Pizza,Pizza Place,4bf58dd8d48988d1ca941735,5201a6f8498e998e8d2b8741,47.14480690071651,-119.27759597789785
Papa John's Pizza,Pizza Place,4bf58dd8d48988d1ca941735,4c5c95a39b28d13aec425770,47.136815319045766,-119.2779260284716
Rock Top Burgers & Brew,Burger Joint,4bf58dd8d48988d16c941735,51510f78e4b06ae76f7b9e87,47.14131095433423,-119.27872068904098
Pizza Hut w/Drive Thru,Italian Restaurant,4bf58dd8d48988d110941735,589b726501f4333c2f1791cd,47.128069346024084,-119.26855310797691
McDonald's,Restaurant,4bf58dd8d48988d1c4941735,4bdc6da3c79cc928947e86e9,47.139971,-119.277955
Shari's Cafe and Pies,American Restaurant,4bf58dd8d48988d14e941735,4bdde4dd0ee3a59327142fb0,47.101927,-119.243866
KFC,Restaurant,4bf58dd8d48988d1c4941735,4c5dafe594fd0f475926cc45,47.132103799718784,-119.27359530318279
Denny's,Breakfast Spot,4bf58dd8d48988d143941735,56995607498e15c81b207594,47.1056263,-119.2526749
Sumo Express,Sushi Restaurant,4bf58dd8d48988d1d2941735,5772f95f498eba70b18ce017,47.141515829841616,-119.27761657605998
The Beach House at MarDon,American Restaurant,4bf58dd8d48988d14e941735,4fb833b9e4b01da820851e40,46.963436126708984,-119.31204223632812
Sporty's Steakhouse,Restaurant,4bf58dd8d48988d1c4941735,4ba6c44af964a5206a6e39e3,47.13351189999999,-119.2734706
Mi Casa,Mexican Restaurant,4bf58dd8d48988d1c1941735,5304e7fc498ee68e1a5ba4a4,47.11659351770105,-119.26439083556201
Chicos Pizza Parlor,Pizza Place,4bf58dd8d48988d1ca941735,4bc52b1541cb76b0d8193e6f,47.13901134333737,-119.28536440429481
Woody's Drive-In,Burger Joint,4bf58dd8d48988d16c941735,4c26838ff1272d7fb1be86c5,47.128576,-119.283324
Bob's Cafe At the Inn,Diner,4bf58dd8d48988d147941735,4bde264c6198c9b66c3313ff,47.1012677049888,-119.24534791959918
El Rodeo Restaurant,Mexican Restaurant,4bf58dd8d48988d1c1941735,4c27b6ace19720a1e7dbf658,47.12245252143296,-119.2916889362256
Tacos Mi Casa,Mexican Restaurant,4bf58dd8d48988d1c1941735,4f763cede4b0e91fa5d1a5de,47.13772414173241,-119.2774868040858
Taco Shop,Mexican Restaurant,4bf58dd8d48988d1c1941735,4be33d10f07b0f47dc76f743,47.12748427948673,-119.28051041681334
El Mirinda,Mexican Restaurant,4bf58dd8d48988d1c1941735,5bbf636d911fc4002cece6f6,47.13910105595487,-119.28532873630438
Inca Mexican Restaurant,Mexican Restaurant,4bf58dd8d48988d1c1941735,4bd60ed55631c9b6d43da530,47.13229052343152,-119.27435726461555
Tacos Mi Casa II,Mexican Restaurant,4bf58dd8d48988d1c1941735,4fb763fabe774df11d62b55e,47.12868306633885,-119.27602840336485
Red Door Cafe,Café,4bf58dd8d48988d16d941735,550ddcc3498e3245bcc67c4e,47.12909810321196,-119.28005850543478
Tsunami Sushi,Sushi Restaurant,4bf58dd8d48988d1d2941735,4c7c29fb794e224bd0786d28,47.12993726378543,-119.27851679244401
Paradise Lakefront Restaurant & Lounge,Restaurant,4bf58dd8d48988d1c4941735,4dc1c2bc45dd6601d5cc358c,47.103622,-119.31692357
Ripple's Broasted Chicken,Fried Chicken Joint,4d4ae6fc7a7b7dea34424761,59716102e185f32f9ab2b1fa,47.131157,-119.269264
Domino's Pizza,Restaurant,4bf58dd8d48988d1c4941735,4c5e5c08857ca593eaaccfcb,47.133138512555206,-119.27555485630364
Pop's In & Out,Burger Joint,4bf58dd8d48988d16c941735,4d6c4d06d691236a82ad924c,47.13902450526028,-119.2854902621793
Papa Murphy's,Pizza Place,4bf58dd8d48988d1ca941735,4c182252834e2d7fb37d2880,47.13722,-119.27797
Barbara Ann's Burger Inn,Fried Chicken Joint,4d4ae6fc7a7b7dea34424761,4b830bbdf964a5206af430e3,47.103499,-119.34185427
Taco Time,Taco Place,4bf58dd8d48988d151941735,4c06b1da8a81c9b64e202690,47.1316075424514,-119.27742482538862
Subway,Sandwich Place,4bf58dd8d48988d1c5941735,4cca63065829b713ea8ad2db,47.14124187747791,-119.27422479287827
Michael's Market & Bistro,Deli / Bodega,4bf58dd8d48988d146941735,4b9a6746f964a5205eb235e3,47.12974898003342,-119.28111233020367
Subway / Conoco,Sandwich Place,4bf58dd8d48988d1c5941735,4c02d6b9f423a5933a67cf16,47.101327744023784,-119.24862617495671
Quiznos,Sandwich Place,4bf58dd8d48988d1c5941735,4c50dc42375c0f474fa5fb92,47.141400196179575,-119.27698194980621
Subway,Sandwich Place,4bf58dd8d48988d1c5941735,4c323f91213c2d7f2f26355d,47.1127366019272,-119.26048293889124
Subway,Sandwich Place,4bf58dd8d48988d1c5941735,4bd892d011dcc928bee7f633,47.14241885240653,-119.27757293206719
Subway,Sandwich Place,4bf58dd8d48988d1c5941735,5e1371b2697f0a0008574e3b,47.10129304780622,-119.24868517334903
SUBWAY,Sandwich Place,4bf58dd8d48988d1c5941735,4c9259b97088a143d6afb843,47.10483047641272,-119.30984093968675
Michael's Seafood Menu,Seafood Restaurant,4bf58dd8d48988d1ce941735,5b00f45d4f0e58002c141056,47.1259,-119.28934
Porterhouse Steakhouse,Steakhouse,4bf58dd8d48988d1cc941735,4c0aebf76071a593367fe032,47.13235,-119.27034
Moses Pointe Steakhouse,Steakhouse,4bf58dd8d48988d1cc941735,4e5da17a62e1c6c159159725,47.15502097860586,-119.35682965242688
Michael's On the Lake,Steakhouse,4bf58dd8d48988d1cc941735,49e3cf01f964a520da621fe3,47.12635365204753,-119.28934540020141
Mason's Place,Tea Room,4bf58dd8d48988d1dc931735,55f8d380498ea52d328c2a2c,47.1303771,-119.2779613
Lin's Restaurant,Vegetarian / Vegan Restaurant,4bf58dd8d48988d1d3941735,4c60a889832fa593855bf0d3,47.129393,-119.268349
Lin's Vegan Menu,Vegetarian / Vegan Restaurant,4bf58dd8d48988d1d3941735,57f19042cd1034296fde384e,47.130470275878906,-119.26864624023438
The Wing Bar,Wings Joint,4bf58dd8d48988d14c941735,5cd8e295018cbb002ce9c7c9,47.130363,-119.26896
Papa's Sports Lounge,Sports Bar,4bf58dd8d48988d11d941735,4bb15d7ff964a520058f3ce3,47.14482582615089,-119.27763001573587
Wing Bar,Wings Joint,4bf58dd8d48988d14c941735,5cd8ca8a031320002c870ded,47.130554,-119.26806
