name,category,category_id,venue_id,lat,long
"MacKenzie River Pizza, Grill & Pub",African Restaurant,4bf58dd8d48988d1c8941735,5bec66e3a2c00b736673d73f,42.90830612182617,-112.46231079101562
Chalk Horse Lounge & Billards,American Restaurant,4bf58dd8d48988d14e941735,4bc92a9c937ca5932672a592,42.87083616872278,-112.44878144118826
Pretzelmaker,American Restaurant,4bf58dd8d48988d14e941735,4cdafdf18ec69eb02209a6e9,42.90896833240236,-112.4694065519368
Gillies Food Stop,American Restaurant,4bf58dd8d48988d14e941735,59244f5c4940bc0525bc8037,42.908725866419836,-112.4697983264923
Deka Gahni,American Restaurant,4bf58dd8d48988d14e941735,5138e280e4b0ccb4cd5f0a3c,43.024752,-112.411276
The Yellowstone Restaurant and Lounge,New American Restaurant,4bf58dd8d48988d157941735,5bc646aeacb37f0038aaf919,42.8609,-112.44875
The Bridge,New American Restaurant,4bf58dd8d48988d157941735,58801af6ea29b80cdc0f6012,42.860366,-112.449537
"MacKenzie River Pizza, Grill & Pub",New American Restaurant,4bf58dd8d48988d157941735,5ec6c8dfb2e84300072f155d,42.9079349,-112.4638984
Fire & Rice,Asian Restaurant,4bf58dd8d48988d142941735,4dee597531516bf7a047b244,42.86327289085331,-112.43159294128418
New Hong Kong Restaurant,Chinese Restaurant,4bf58dd8d48988d145941735,4db880c18154ce84dc14659c,42.86662082902989,-112.44392037544438
Chang's Garden,Chinese Restaurant,4bf58dd8d48988d145941735,4c1be55763750f47cca7b567,42.89333959987821,-112.44218414247644
Chopstick Cafe,Chinese Restaurant,4bf58dd8d48988d145941735,4d1a3992b15cb1f738b3c821,42.8610786788766,-112.4491579264657
Mings,Chinese Restaurant,4bf58dd8d48988d145941735,4ce321857e9b721e72d434f1,42.871490120887756,-112.44867861270905
Lei's Mongolian B-B-Q,Chinese Restaurant,4bf58dd8d48988d145941735,4bc783516501c9b626933e29,42.917648,-112.465332
Mandalay Express,Chinese Restaurant,4bf58dd8d48988d145941735,4f4e8ef0d5fbd84c3ef2e122,42.86042605267216,-112.4326229095459
Filipino cuisine,Filipino Restaurant,4eb1bd1c3b7b55596b4a748f,58437f32e110955af0da5838,42.883548736572266,-112.4517822265625
Fuji Japanese Steak House,Japanese Restaurant,4bf58dd8d48988d111941735,5773af29498eba70b2b6591f,42.91185760498047,-112.46522521972656
yoshida,Japanese Restaurant,4bf58dd8d48988d111941735,538f8296498ee105374ab766,42.861384,-112.449322
Yoshida,Japanese Curry Restaurant,55a59bace4b013909087cb30,5676fff2498e0470051e99a8,42.90944,-112.469894
All You Can Eat Sushi,Sushi Restaurant,4bf58dd8d48988d1d2941735,4f0c87bbe4b0dec025376b8a,42.8825798034668,-112.45167541503906
Kowloon Express,Asian Restaurant,4bf58dd8d48988d142941735,4d13df98e190721e62a50221,42.86364547577642,-112.44149867413341
Gin Sen,Thai Restaurant,4bf58dd8d48988d149941735,5c798ba50e5da80039031bb5,42.865892,-112.444262
Thai Zap,Thai Restaurant,4bf58dd8d48988d149941735,5e34b7eb32cdc20008ec696e,42.883431,-112.451703
Great Wall Express,Chinese Restaurant,4bf58dd8d48988d145941735,4cc5d52c3d7fa1cd8610b45f,42.90537181942658,-112.45277908773794
G-UNITS,BBQ Joint,4bf58dd8d48988d1df931735,4d8d2af15091a1cdba0f7201,42.875503,-112.440721
Frankz Bakery Outlet,Bakery,4bf58dd8d48988d16a941735,5c3f8d0c464d650039c6e576,42.89051,-112.46656
Crumbl,Bakery,4bf58dd8d48988d16a941735,5d326e4c1eef220008bd2887,42.904338,-112.452697
5th Street Baglery,Bagel Shop,4bf58dd8d48988d179941735,4dfba3a3d4c01451df596705,42.862815856933594,-112.43965911865234
Hampton Inn Breakfast Nook,Breakfast Spot,4bf58dd8d48988d143941735,5124da62e4b026d483d3cf7d,42.87838849728305,-112.42419557648869
Sandbaggers,Bar,4bf58dd8d48988d116941735,4ccde79c566aa09307722afd,42.88036848677929,-112.45120256367545
Central Park Burgers,Burger Joint,4bf58dd8d48988d16c941735,4bc8aaf3ab62d13a3cbf17d4,42.883721285218584,-112.45119790523061
Grillnation,Burger Joint,4bf58dd8d48988d16c941735,4f4e90e0d5fbd84c3ef316e7,42.86047323890519,-112.43264436721802
Portneuf grill,Café,4bf58dd8d48988d16d941735,51b72f99498e156dd144d030,42.87367630004883,-112.4217758178711
Treasure Valley Coffee Of Eastern Idaho,Café,4bf58dd8d48988d16d941735,5b803203c9a5170039158519,42.887699127197266,-112.47368621826172
Walmart Bakery,Deli / Bodega,4bf58dd8d48988d146941735,5992cb48fdb9a76e550d55f5,42.91004769,-112.46632
Marcetts,Deli / Bodega,4bf58dd8d48988d146941735,4f3269fb19836c91c7d577f9,42.861351013183594,-112.44923400878906
Arctic Circle,Dessert Shop,4bf58dd8d48988d1d0941735,4c3a0eba2c8020a14fb58d00,42.876553404535315,-112.42198893908787
Great Harvest Bread Co.,Bakery,4bf58dd8d48988d16a941735,4cf02a157bf3b60c1bda577f,42.86335566,-112.45197236537933
Popcorn Shop And More,Cupcake Shop,4bf58dd8d48988d1bc941735,4e3dadc41f6e844231e90e23,42.876739501953125,-112.44694519042969
Kiwi Loco Yogurt,Frozen Yogurt Shop,512e7cae91d4cbb4e5efe0af,4de6e2bb1f6e396609743bcf,42.90443100154318,-112.45204672406223
Yo Crazy Self-Serve Frozen Yogurt,Frozen Yogurt Shop,512e7cae91d4cbb4e5efe0af,4ded7c7145dd3aa41d676755,42.90739529567258,-112.46239811087233
Cold Stone Creamery,Ice Cream Shop,4bf58dd8d48988d1c9941735,4b9c5213f964a520355f36e3,42.883627,-112.451709
Farr's Ice Cream,Ice Cream Shop,4bf58dd8d48988d1c9941735,4c324f9a16adc92895eec19c,42.87697947720974,-112.45559930699906
OLD Town Ice Cream,Ice Cream Shop,4bf58dd8d48988d1c9941735,5525a4bb498ec7257740988f,42.862510681152344,-112.45137023925781
Souper Bowl,Diner,4bf58dd8d48988d147941735,4f328ecd19836c91c7e37faf,42.870074,-112.459848
KIP'S KITCHEN,Diner,4bf58dd8d48988d147941735,4e1a3feb183880768f53dbff,42.90007436,-112.43915672
Stacis Kitchen,Diner,4bf58dd8d48988d147941735,4f1a184ce4b0889e03e8c430,42.90782576113305,-112.43123571328678
Amazing Glaze Donuts,Donut Shop,4bf58dd8d48988d148941735,5c41fefdf129b50025b6e417,42.8874626159668,-112.4493179321289
The Donut,Donut Shop,4bf58dd8d48988d148941735,4f08b2b4e4b0c3ff843920ae,42.8874626159668,-112.4493179321289
Maverik - Adventure's First Stop,Convenience Store,4d954b0ea243a5684a65b473,52d9ce0b11d24e62041d4194,42.91668225794821,-112.46558315591301
Idaho State University Student Union Building,Student Center,4bf58dd8d48988d1ab941735,4b61bb00f964a520381f2ae3,42.86059577571047,-112.43317332556337
Senior Garcias,Food Truck,4bf58dd8d48988d1cb941735,4d7c7abecf3f370479205240,42.9190316600079,-112.4782274389394
Thanks A Brunch,Food Truck,4bf58dd8d48988d1cb941735,59678e5bfc9e94658de2425f,42.870696365991265,-112.42311876927714
The Melt,Food Truck,4bf58dd8d48988d1cb941735,5b493d5381a0ea002c809931,42.86349404841644,-112.44165281300819
Rib Kage,Food Truck,4bf58dd8d48988d1cb941735,5b4a7ce865211f002c26e436,42.88955733187203,-112.43965631674271
Atlas Smokehouse,Food Truck,4bf58dd8d48988d1cb941735,56f5a612cd1083ad47249c06,42.88804133021377,-112.45214628721749
El Herradero Taco Truck,Food Truck,4bf58dd8d48988d1cb941735,50564bcae4b06562e440d23b,42.877182978734595,-112.45722762938428
Abracadabra's,Breakfast Spot,4bf58dd8d48988d143941735,5a89e5aea9fe123e9f70e84f,42.896291,-112.451253
Jack in the Box,Fried Chicken Joint,4d4ae6fc7a7b7dea34424761,4be3142d660ec9283a15cb3b,42.865529821203175,-112.44450777769089
Jack in the Box,Fried Chicken Joint,4d4ae6fc7a7b7dea34424761,5830afc25d6ec6451ea7d668,42.9177121,-112.466066
Grecian Key Restaurant,Greek Restaurant,4bf58dd8d48988d10e941735,4bcca16f0687ef3b8199dfcc,42.863887739909,-112.45259815291733
The Grecian Key,Greek Restaurant,4bf58dd8d48988d10e941735,4e7bd4c552b14ada783e74df,42.87400817871094,-112.43818664550781
Tom's Gyros,Greek Restaurant,4bf58dd8d48988d10e941735,4b945902f964a520a57534e3,42.865932777144444,-112.44622895532956
A Taste Of Hawaii,Hawaiian Restaurant,52e81612bcbc57f1066b79fe,59c69fc5b3c9613aae876338,42.861351013183594,-112.44923400878906
A Taste of Hawaii Shaved Ice,Hawaiian Restaurant,52e81612bcbc57f1066b79fe,577047cc498e38f2bd609b73,42.87998,-112.451698
Hokulia Shaved Ice,Hawaiian Restaurant,52e81612bcbc57f1066b79fe,57644c1c498ed7bb3e12725a,42.909898,-112.467955
Himalayan Flavor,Indian Restaurant,4bf58dd8d48988d10f941735,5cca026265211f002c16b5cb,42.891090393066406,-112.44862365722656
Nosh Mahal,Indian Restaurant,4bf58dd8d48988d10f941735,57294388498ecc9846233e8c,42.891205439496616,-112.44853109121323
Everest Kitchen,Indian Restaurant,4bf58dd8d48988d10f941735,5b417df3471d6e002cb729d5,42.91376,-112.46813
Portneuf Valley Brewing,Brewery,50327c8591d4c4b30a586d5d,4b65e0e3f964a5209e052be3,42.85983879487496,-112.44327322919176
Jamba Juice,Juice Bar,4bf58dd8d48988d112941735,4bae7b58f964a520d0b73be3,42.895064,-112.45175
Orange Julius,Juice Bar,4bf58dd8d48988d112941735,5134f4a9e4b0b7da6fa1a316,42.909425,-112.469965
Jamba Juice,Juice Bar,4bf58dd8d48988d112941735,52448f2711d2245d050bc043,42.860788,-112.433023
Alexander's,Mediterranean Restaurant,4bf58dd8d48988d1c0941735,52e3158f498e7a474b91524b,42.87727737426758,-112.45828247070312
El Herradero,Mexican Restaurant,4bf58dd8d48988d1c1941735,4c3244f0452620a116d5210f,42.86407552937671,-112.45511058483709
Tres Hermanos,Mexican Restaurant,4bf58dd8d48988d1c1941735,5a67d92a2d2fd96f6dd43bcf,42.917216,-112.465914
Puerto Vallarta,Mexican Restaurant,4bf58dd8d48988d1c1941735,4bfc8537b5cd2d7ff1c031fb,42.887992,-112.452184
Del Taco,Mexican Restaurant,4bf58dd8d48988d1c1941735,4e4df51cbd4101d0d79f16d2,42.906925201416016,-112.46516418457031
Senor Garcia's Tex-Mex,Mexican Restaurant,4bf58dd8d48988d1c1941735,50d3bd0ae4b057085869b564,42.79242696180883,-112.24922096311508
Adobe Cafe,Mexican Restaurant,4bf58dd8d48988d1c1941735,4ccefb2bc566199c6f2dca8c,42.86305808985738,-112.4316092037899
Ketchum Burrito,Burrito Place,4bf58dd8d48988d153941735,5a56b39f61e53b3636a229de,42.904395,-112.452494
Jasmine,Middle Eastern Restaurant,4bf58dd8d48988d115941735,55661265498e46aa1295d651,42.864323,-112.446666
Papa Kelsey's Pizza & Subs,Pizza Place,4bf58dd8d48988d1ca941735,4ceac1b2e1eeb60c41f3afae,42.89166033267975,-112.442547082901
Bigfoot Pizza,Pizza Place,4bf58dd8d48988d1ca941735,4d290c786e27a14351c12024,42.88592646666667,-112.43864235
Chili's Grill & Bar,Tex-Mex Restaurant,56aa371ae4b08b9a8d5734ba,4b985cfdf964a5201a3e35e3,42.90504501,-112.45194711
Señor Iguana's,Mexican Restaurant,4bf58dd8d48988d1c1941735,4be1ccea87e42d7f84ee870b,42.89275362171393,-112.44247699931208
El Herradero,Mexican Restaurant,4bf58dd8d48988d1c1941735,4b6cb7e6f964a520cb4e2ce3,42.87739943862724,-112.44191769385588
Einstein Bros. Bagels,Bagel Shop,4bf58dd8d48988d179941735,4f4e909dd5fbd84c3ef30fbd,42.860533982738936,-112.43263917790989
Papa John's Pizza,Pizza Place,4bf58dd8d48988d1ca941735,4c79a1f8566db60c2abe450e,42.8666413811443,-112.44303516182293
Sumisu,Sushi Restaurant,4bf58dd8d48988d1d2941735,4d018d0c6212721ebbb8e111,42.86479067459361,-112.44618238716798
Ross Park Drive In,American Restaurant,4bf58dd8d48988d14e941735,4d9632b12bd6f04d8cf83050,42.84777034969216,-112.426788754383
Bamboo Garden,Chinese Restaurant,4bf58dd8d48988d145941735,4bba9892b35776b0b52acb01,42.89686172421362,-112.45114700050236
Tastee Treet,American Restaurant,4bf58dd8d48988d14e941735,4cd9b154a99d37043ca40cce,42.855302623640284,-112.4308650102652
Taco Time,Taco Place,4bf58dd8d48988d151941735,4e4e3c19bd4101d0d7a58d91,42.894732,-112.451115
Press Box,American Restaurant,4bf58dd8d48988d14e941735,4c1acffd55e4c9b681724823,42.898100466778885,-112.45168910490055
Fuji Japanese Hibachi and Sushi,Sushi Restaurant,4bf58dd8d48988d1d2941735,576d78e3498e8b7aeba276f9,42.912079,-112.465198
Domino's Pizza,Pizza Place,4bf58dd8d48988d1ca941735,4d41f064aed776eb66696997,42.88006329540012,-112.45182539631969
Villano's Italian Restaurant,Italian Restaurant,4bf58dd8d48988d110941735,52daf0ef498e982a0694ef55,42.862668,-112.451596
Papa Murphy's,Pizza Place,4bf58dd8d48988d1ca941735,4e4473a0d4c02cf15f63125a,42.921301475762284,-112.46691026220479
Mod Pizza,Restaurant,4bf58dd8d48988d1c4941735,5c9d3b8cfb8e59002c74fa87,42.90686517,-112.46532312
Panera Bread,Bakery,4bf58dd8d48988d16a941735,56cb89e6498e44488cc02a70,42.9071731,-112.46675
IHOP,Breakfast Spot,4bf58dd8d48988d143941735,4bc9c8f6fb84c9b6b6931b3e,42.9080940067573,-112.46578352225072
Mandarin House,Chinese Restaurant,4bf58dd8d48988d145941735,4b33e7b8f964a520a32125e3,42.887491389244026,-112.45258154588444
Chapala Mexican Restaurant,Mexican Restaurant,4bf58dd8d48988d1c1941735,4d755016e278f04dc10c63b8,42.91392,-112.46672
Mama Inez Express,Mexican Restaurant,4bf58dd8d48988d1c1941735,4c28e2a4fe6e2d7fa1f5533c,42.920772132319584,-112.46738959244377
Pizza Hut,Restaurant,4bf58dd8d48988d1c4941735,581a54b10839693130c0651e,42.9059289,-112.4653663
Pasta & Vino,Italian Restaurant,4bf58dd8d48988d110941735,4c79c0ff2d3ba1430f828fd0,42.86262081666667,-112.45104968547821
Pizza Hut,Pizza Place,4bf58dd8d48988d1ca941735,4bd89462e914a59376a653fa,42.91436654,-112.4667987
Taste of India & Nepal Cuisine of Himalaya,Indian Restaurant,4bf58dd8d48988d10f941735,4ca5451cf47ea143b8f95521,42.86405732112268,-112.45258659124374
Costa Vida,Mexican Restaurant,4bf58dd8d48988d1c1941735,4c06a71c8b4520a101bd8597,42.91163926956992,-112.46410862508026
Popeyes Louisiana Kitchen,Fried Chicken Joint,4d4ae6fc7a7b7dea34424761,57410d76498e011425f8a5e8,42.906412,-112.466051
Rahma Restaurant,Halal Restaurant,52e81612bcbc57f1066b79ff,5547e6fd498e409b00ac0ad1,42.87725655179868,-112.45819919132909
McDonald's,Restaurant,4bf58dd8d48988d1c4941735,4bb40b51bd4b9c74b05332f5,42.859212865331315,-112.43554933930682
McDonald's,Restaurant,4bf58dd8d48988d1c4941735,4b6a0865f964a52010c32be3,42.9110204,-112.46571
Applebee's Grill + Bar,Restaurant,4bf58dd8d48988d1c4941735,4bc77f4d0050b71333cfb83b,42.90155896,-112.436357
Los Robertos,Mexican Restaurant,4bf58dd8d48988d1c1941735,4c27a552905a0f4782416560,42.867349808226045,-112.45638223418871
Cafe Tuscano,Italian Restaurant,4bf58dd8d48988d110941735,4e92383929c27df468a517c1,42.87679980658265,-112.421169869518
Cafe Rio Mexican Grill,Mexican Restaurant,4bf58dd8d48988d1c1941735,4e552a4445dd5c591f53003a,42.89108726480936,-112.44933902632108
Mama Inez,Mexican Restaurant,4bf58dd8d48988d1c1941735,4bbb84c23de8c9b601da99ad,42.88192434960292,-112.45120334830875
KFC,Restaurant,4bf58dd8d48988d1c4941735,4bd0f4409854d13ac8dff84d,42.887104421291475,-112.4510879306672
Red Robin Gourmet Burgers and Brews,Restaurant,4bf58dd8d48988d1c4941735,5758735b498e5809fda8da77,42.90644047,-112.4666989
El Caporal,Mexican Restaurant,4bf58dd8d48988d1c1941735,51731634e4b0158be00ce67d,42.88635643282479,-112.4511781634759
Little Caesars Pizza,Pizza Place,4bf58dd8d48988d1ca941735,4c4a23749c8d2d7fbc251969,42.86429056124722,-112.44242423322117
Tastee Treat,Burger Joint,4bf58dd8d48988d16c941735,4c64be7dd02b20a1b7e49b90,42.92881324481821,-112.46694481390412
Elmer’s Restaurant,American Restaurant,4bf58dd8d48988d14e941735,4c30dd25a0ced13a3eca126e,42.860634157042696,-112.43686913026548
5th Street Bagelry,Bagel Shop,4bf58dd8d48988d179941735,4b65dff5f964a52066052be3,42.86290084620453,-112.4396282723164
Jeri's Jumbo Cafe,Café,4bf58dd8d48988d16d941735,4c36258d0a71c9b6a2a23cc9,42.8905689690573,-112.46586410966493
Five Guys,Burger Joint,4bf58dd8d48988d16c941735,4ba53192f964a52022ea38e3,42.905534806029934,-112.45263708539922
Panda Express,Chinese Restaurant,4bf58dd8d48988d145941735,4ed979138b8173160b3bf3b2,42.91004405548787,-112.46678389237896
Golden Corral,Buffet,52e81612bcbc57f1066b79f4,4bb6841d941ad13ab8921fe3,42.890296673927786,-112.45094190650607
Pizza Pie Cafe,Pizza Place,4bf58dd8d48988d1ca941735,4ce429f277ef224bc31b477b,42.90752020896868,-112.46254225479456
Jakers Bar and Grill,Restaurant,4bf58dd8d48988d1c4941735,5909a78f2be4252186111fb2,42.876876,-112.41889499999999
Arctic Circle,Burger Joint,4bf58dd8d48988d16c941735,4bc667a8f360ef3b1ebfdb2d,42.87854366466648,-112.45092355546295
Booth Barn,American Restaurant,4bf58dd8d48988d14e941735,4c7850ea566db60c6450410e,42.89440155029297,-112.4189682006836
Papa Murphy's,Pizza Place,4bf58dd8d48988d1ca941735,4c12c97077cea593d8b8cd60,42.88533030211235,-112.45096485426313
Noodles & Company,Noodle House,4bf58dd8d48988d1d1941735,57a52804498e92362fbb0050,42.90591840555733,-112.465237001893
Uncle Jim's Family Dining,American Restaurant,4bf58dd8d48988d14e941735,4c2e2796260bc92800341bd3,42.874423053570325,-112.45017528533936
Sand Trap,American Restaurant,4bf58dd8d48988d14e941735,4bd770f35cf276b0814f9b00,42.84209435963259,-112.42820140209022
"MacKenzie River Pizza, Grill & Pub",American Restaurant,4bf58dd8d48988d14e941735,52a629b611d27eeb9740388d,42.90830893186131,-112.46252546580303
Buddy's Italian Restaurant,Italian Restaurant,4bf58dd8d48988d110941735,4bd0f0c4caff9521daf2cff0,42.866217896681675,-112.44237931445184
Perkins Restaurant & Bakery,American Restaurant,4bf58dd8d48988d14e941735,4b804debf964a520316630e3,42.89906,-112.4315059
Oliver's Restaurant,Diner,4bf58dd8d48988d147941735,4b775510f964a520c2922ee3,42.86632949312715,-112.4428854811511
Remos,Italian Restaurant,4bf58dd8d48988d110941735,4c98f8a94804a143793cf00e,42.888016,-112.45232615
مطبخ المجسم,Salad Place,4bf58dd8d48988d1bd941735,56b983b1498e252acf2c9092,42.914347,-112.421371
Goody's,Sandwich Place,4bf58dd8d48988d1c5941735,4b635544f964a520d3722ae3,42.86025490548197,-112.43655910969922
Subway,Sandwich Place,4bf58dd8d48988d1c5941735,4c45f0c0342c1b8dc025b589,42.899027658111976,-112.43219406271476
Subway,Sandwich Place,4bf58dd8d48988d1c5941735,4beaffcc6295c9b657258708,42.857287616491405,-112.43307832664556
Geraldines Bake Shop & Deli,Sandwich Place,4bf58dd8d48988d1c5941735,4c19008c98f4a593c762fff5,42.92089835831551,-112.46150371157434
Subway,Sandwich Place,4bf58dd8d48988d1c5941735,4daca7ac4b22ee6dec09c86a,42.91603609161377,-112.466015895434
Jimmy John's,Sandwich Place,4bf58dd8d48988d1c5941735,4b6b334df964a52024f92be3,42.86234634708231,-112.43915649314461
Firehouse Subs Rail Crossing,Sandwich Place,4bf58dd8d48988d1c5941735,54a40e2f498e6d5ac99a3ec4,42.904343,-112.452801
Subway,Sandwich Place,4bf58dd8d48988d1c5941735,4d44a3597c55594125921dd2,42.88735756164253,-112.45079804857949
Jimmy John's,Sandwich Place,4bf58dd8d48988d1c5941735,4e723c3bd1647c08d40bc738,42.906275787290966,-112.46112062684277
Subway,Sandwich Place,4bf58dd8d48988d1c5941735,4dd2ef45ae60da0ebed299dd,42.88154602050781,-112.46554565429688
Chubbyz,Sandwich Place,4bf58dd8d48988d1c5941735,5b89826b0ff4f900399807f6,42.864754,-112.44656
subway,Sandwich Place,4bf58dd8d48988d1c5941735,516850b2498ee6354b613358,42.866526362949095,-112.44313273271652
The Works,Sandwich Place,4bf58dd8d48988d1c5941735,4ca62a7e931bb60c9ab490e2,42.893384390355585,-112.45179098515817
Blimpie Subs & Sandwiches,Sandwich Place,4bf58dd8d48988d1c5941735,4e4de39bbd41b76bef94e6e8,42.876740000000005,-112.421269
Subway,Sandwich Place,4bf58dd8d48988d1c5941735,5e1399d137b12d0008478421,42.86659572859905,-112.44311165504263
Red Lobster,Seafood Restaurant,4bf58dd8d48988d1ce941735,4be2265cf07b0f4719edf443,42.907745,-112.466871
The Bridge,Seafood Restaurant,4bf58dd8d48988d1ce941735,4dc365f31f6ef43b89e2f7b3,42.85842264630503,-112.44165986344444
The Cookie Place,Snack Place,4bf58dd8d48988d1c7941735,5cdc1786b1538e002baf93e8,42.89726,-112.45194
Pretzel Maker,Snack Place,4bf58dd8d48988d1c7941735,4e4e3a2fbd4101d0d7a55736,42.908295,-112.466336
Smith's Fuel Center,Snack Place,4bf58dd8d48988d1c7941735,591c5c0a0d8a0f42e6330888,42.92194426731835,-112.46677793563777
Butterburrs,American Restaurant,4bf58dd8d48988d14e941735,4a68a177f964a520b4ca1fe3,42.89211427254354,-112.4516543272352
Sandpiper Restaurant & Lounge,American Restaurant,4bf58dd8d48988d14e941735,4b68fc3ff964a520f6952be3,42.899860707344615,-112.4331769553405
Thai Kitchen,Thai Restaurant,4bf58dd8d48988d149941735,51e9d0e3498ec213d1d56bf0,42.89288206989156,-112.44184268659434
Thai Paradise - Thai Restaurant & PHO,Thai Restaurant,4bf58dd8d48988d149941735,4c5c526c7735c9b617f28b72,42.86175536697788,-112.4499851476989
Geraldine's Bake Shoppe and Deli,Soup Place,4bf58dd8d48988d1dd931735,4c5709fed12a20a1cacc65bd,42.858341217041016,-112.44157409667969
Texas Roadhouse,Steakhouse,4bf58dd8d48988d1cc941735,4b65fdb4f964a520f60c2be3,42.911992,-112.46213
Sizzler,Steakhouse,4bf58dd8d48988d1cc941735,4b8eef9ff964a520bb3f33e3,42.894205232210574,-112.43987557046066
Pantry Coffee Shop At Westcoast,Steakhouse,4bf58dd8d48988d1cc941735,4f3219cf19836c91c7b5eac4,42.89750671386719,-112.43250274658203
Bannock Peak Truck Stop & Casino,Truck Stop,57558b36e4b065ecebd306dd,4c87fff9bbec6dcba150d058,42.88697832920955,-112.63548915376262
The Healthier Place to Eat,Vegetarian / Vegan Restaurant,4bf58dd8d48988d1d3941735,544c22ec498eeacb3380e7e8,42.861986548781076,-112.45038800619346
Mondo Subs,Vegetarian / Vegan Restaurant,4bf58dd8d48988d1d3941735,4ccef470c566199cd027ca8c,42.865267,-112.430762
Outer Limits Fun Zone,Arcade,4bf58dd8d48988d1e1931735,4c3231bc66e40f47e01bc68b,42.87856012042822,-112.4581405328046
Buffalo Wild Wings,Wings Joint,4bf58dd8d48988d14c941735,4fb7cecb0039236eac25c100,42.908202241189365,-112.4609171068374
Denny's,Breakfast Spot,4bf58dd8d48988d143941735,4bfd6d8fb68d0f47eac5e857,42.91173352686167,-112.46591717004776
Winger's Roadhouse Grill,Wings Joint,4bf58dd8d48988d14c941735,4bd9eba52a3a0f47b1e8a8b6,42.88755,-112.45097
Club 91,Bar,4bf58dd8d48988d116941735,4bc7dde06501c9b62b593f29,42.89827886945964,-112.45178210231623
Pizza Hut,Pizza Place,4bf58dd8d48988d1ca941735,4b7302d9f964a520a9952de3,42.8598814422891,-112.4361714720726
Thai Zap Food Truck,Food Truck,4bf58dd8d48988d1cb941735,5596d4aa498e9ad793a743cf,42.90587732785939,-112.4522462893983
