name,category,category_id,venue_id,lat,long
Snowy Blue Balls Palace,Afghan Restaurant,503288ae91d4c4b30a586d67,54850bff498e11594ca7b31e,45.017501,-123.016162
Silver Grille,American Restaurant,4bf58dd8d48988d14e941735,4c43aa4fdd1f2d7fe0e27ef9,45.005093,-122.78245600000001
The Gathering Spot,American Restaurant,4bf58dd8d48988d14e941735,4d52fa877ee1a35d14ce9f34,45.00596482700519,-122.78216240875916
Harvest Grille @ Silverton Hospital,American Restaurant,4bf58dd8d48988d14e941735,4eb73958469073bbc6ecb299,45.00473555318321,-122.79004613721979
Arby's,American Restaurant,4bf58dd8d48988d14e941735,4b1acbc9f964a520fdf123e3,44.9430199,-122.9830394
Arby's,American Restaurant,4bf58dd8d48988d14e941735,4bafb0e0f964a52008183ce3,44.8833066884565,-123.030418977141
Carl's Jr.,American Restaurant,4bf58dd8d48988d14e941735,4bb019edf964a52016373ce3,44.87725818535296,-123.02683176219227
kolby's,American Restaurant,4bf58dd8d48988d14e941735,5019ad65e4b0458deebcf94c,44.981790999999994,-123.02516100000001
Arby's,American Restaurant,4bf58dd8d48988d14e941735,4b7d9feff964a52096ca2fe3,44.9900663,-123.026233
Salem Center Food Court,American Restaurant,4bf58dd8d48988d14e941735,50d24be9e4b0126215e9180d,44.94294937270946,-123.03694979023236
Magoo's,American Restaurant,4bf58dd8d48988d14e941735,4abd9d61f964a520288b20e3,44.938758391071296,-123.04156277317898
Almost Home Restaurant,American Restaurant,4bf58dd8d48988d14e941735,4ce8274bd99f721e10b9ae73,44.9500671084313,-122.99385225544692
Better Than Mama's,American Restaurant,4bf58dd8d48988d14e941735,5484cab3498e6ba0cc908e73,44.95237268830556,-123.03033724739092
Iggy's Cafe,American Restaurant,4bf58dd8d48988d14e941735,5201157a498e5f88a7072189,44.93974,-123.017228
Don's Restaurant,American Restaurant,4bf58dd8d48988d14e941735,4c77e4d1765d8cfa82230637,44.92796564,-123.03019042
Rockin Rodgers,American Restaurant,4bf58dd8d48988d14e941735,4efb7b8ed3e354f0c0c5599f,44.93097529267375,-123.11217548559185
Ventorlin Inhaler,American Restaurant,4bf58dd8d48988d14e941735,5d1308985a12fe0023c31dfa,44.94805712974905,-123.00129354000092
urban alley,American Restaurant,4bf58dd8d48988d14e941735,56675855498e41c574d9072b,44.941853,-123.038747
Lil's Cupcake Cafe,American Restaurant,4bf58dd8d48988d14e941735,4e20a2b8b0fbdf9ba7a18a73,44.938907,-123.037645
Honey Baked Ham,American Restaurant,4bf58dd8d48988d14e941735,4d6c1e7b9c533704d13d37fa,44.9424043082501,-123.03710387709948
Shari's,American Restaurant,4bf58dd8d48988d14e941735,4dd45703d22d8e00fcc7d845,44.99561953794359,-123.04910090299019
Blooming Cuisine,Chinese Restaurant,4bf58dd8d48988d145941735,4d795a000ceba1cd5704b058,44.981367999999996,-123.02700700000001
Chan's Chinese Restaurant,Chinese Restaurant,4bf58dd8d48988d145941735,4df56f1ae4cda09e6da9d6c7,45.005093,-122.78245600000001
Chang's Mongolian Grill,Asian Restaurant,4bf58dd8d48988d142941735,4b79b31cf964a520090c2fe3,44.93942762869134,-122.98543022355089
Blue Willow,Chinese Restaurant,4bf58dd8d48988d145941735,4c60c778cd522d7fe521cf3f,44.9534445438646,-122.98413758207037
Best Teriyaki,Asian Restaurant,4bf58dd8d48988d142941735,4bf970964a67c928aad926cf,44.947679,-122.98342199999999
asian spice,Chinese Restaurant,4bf58dd8d48988d145941735,50b96c12e4b04809bce7babc,44.915728,-122.977197
Chinn's Restaurant,Chinese Restaurant,4bf58dd8d48988d145941735,4d27d13f888af04d5103c0af,44.884963,-123.03262
Eng's Restaurant & Banquet,Chinese Restaurant,4bf58dd8d48988d145941735,4d82ac3af1e56ea8180e528a,44.88682152,-123.034434
Hainan Orchid,Asian Restaurant,4bf58dd8d48988d142941735,4bdb70212a3a0f47981cafb6,44.939359,-123.038625
Sing Fay,Chinese Restaurant,4bf58dd8d48988d145941735,4bde190d6198c9b65eff12ff,44.8486354,-123.23721936666666
Happy Jing,Chinese Restaurant,4bf58dd8d48988d145941735,5a013b9661e53b47f1ead73e,44.998305,-122.979895
John's Chinese,Chinese Restaurant,4bf58dd8d48988d145941735,4cae7c03aef16dcb0b43a154,44.99384902098612,-123.0261686214858
Chan's,Chinese Restaurant,4bf58dd8d48988d145941735,4c3e56ef0596c9289f348478,44.958531,-123.016654
Love Love Teriyaki II,Asian Restaurant,4bf58dd8d48988d142941735,4efa28b661af454600b300bd,44.94216878031113,-123.03594437195572
Tong King,Asian Restaurant,4bf58dd8d48988d142941735,4bc12ab2920eb713f6641a2c,44.92794895,-123.030646
Fresh Elements,Asian Restaurant,4bf58dd8d48988d142941735,51621219e4b08c9679db4372,44.94345618692312,-123.03791894491965
Rainbow Chinese Restaurant,Chinese Restaurant,4bf58dd8d48988d145941735,4e85187df5b9343141de719d,44.93947982788086,-123.03829956054688
House of Dragon,Chinese Restaurant,4bf58dd8d48988d145941735,4c363191ae2da593dac1fcc5,44.96750029555181,-122.98374652862549
Oishi Asian cafe,Asian Restaurant,4bf58dd8d48988d142941735,551ee4c1498ebcff82db0aaa,44.924223,-123.014736
Dim Sum,Dim Sum Restaurant,4bf58dd8d48988d1f5931735,54de9801498ee1b4cf960d39,44.98133421316879,-123.0266003278984
Yan Yan,Chinese Restaurant,4bf58dd8d48988d145941735,51257520e4b09663e5a56fde,44.967438,-122.98388999999999
Adobo Republic,Filipino Restaurant,4eb1bd1c3b7b55596b4a748f,50dd52e4e4b0738a431b314d,45.011573,-122.99678
Teriyaki Bento,Japanese Restaurant,4bf58dd8d48988d111941735,51b660a0498efeebaf43abbc,44.96182967838607,-123.02892264214915
BON JAPAN 86,Japanese Restaurant,4bf58dd8d48988d111941735,5850593bfad9dc1123f13313,44.928,-123.030252
Teriyaki Diner,Japanese Restaurant,4bf58dd8d48988d111941735,4c7ff28cd92ea09395643372,44.919886,-123.01081299999998
Love Love Teriyaki Dallas Oregon,Japanese Restaurant,4bf58dd8d48988d111941735,5b05e29da795bd0039ccdfbb,44.92572,-123.315549
Sushi To Go,Japanese Restaurant,4bf58dd8d48988d111941735,4d2618d073913704ed39fd35,44.880998999999996,-123.029214
Sushi Ya Sushi,Japanese Restaurant,4bf58dd8d48988d111941735,4d0186a4f94a6dcb406efa43,44.943619,-123.036033
Miyama Concepts,Sushi Restaurant,4bf58dd8d48988d1d2941735,4bf1dc2f99d02d7fe5a8c948,44.848060607910156,-123.23101043701172
Manna Japanese Comfort Food,Japanese Curry Restaurant,55a59bace4b013909087cb30,5dd88bc729a4fe0008eb2e13,44.885111,-123.032596
Ibendoo Ramen,Ramen Restaurant,55a59bace4b013909087cb24,5cdf6b831c0b3400391de3f3,44.906139,-123.043432
yummy dumpling,Chinese Restaurant,4bf58dd8d48988d145941735,56ec75a1cd10ea895770f27b,44.941064596508525,-123.03869614876047
Momiji Sushi Bar & Restaurant,Sushi Restaurant,4bf58dd8d48988d1d2941735,5adff2d10f013c458b423f11,44.940497,-123.058921
Momiji sushi,Sushi Restaurant,4bf58dd8d48988d1d2941735,58b480685804ea3b2a3e5077,44.848411,-123.237162
Kyoto,Asian Restaurant,4bf58dd8d48988d142941735,4d69a1649bd6a1430c6962df,44.94901743180377,-122.98283612838694
J's Teriyaki Sushi Roll,Sushi Restaurant,4bf58dd8d48988d1d2941735,4dfd14caaeb7594e86227348,44.93801663333333,-122.98366478333334
Sushi Takara,Sushi Restaurant,4bf58dd8d48988d1d2941735,5472c6c2498e94529d60c802,44.95343780517578,-122.98208618164062
Cherry's Nagani,Sushi Restaurant,4bf58dd8d48988d1d2941735,4d3277b22c76a143967e71c7,44.995052,-123.026008
Sushi Kyo,Sushi Restaurant,4bf58dd8d48988d1d2941735,4b65f788f964a520860b2be3,44.88613844022996,-123.03339182251483
Teriyaki Town Sushi,Sushi Restaurant,4bf58dd8d48988d1d2941735,4b9a9567f964a52091c335e3,44.982105594318256,-123.02467673578234
Momiji,Sushi Restaurant,4bf58dd8d48988d1d2941735,4bf3229cd2fbef3b1997a4c5,44.913210116377314,-123.04472217382568
Sansei Sushi,Sushi Restaurant,4bf58dd8d48988d1d2941735,4c29530c97d00f473c5741ea,44.96848166287408,-122.98253182406054
O Sushi,Sushi Restaurant,4bf58dd8d48988d1d2941735,4b70795ff964a520a81c2de3,44.93939579062172,-123.03697987241694
Yami Teriyaki and Sushi Roll,Sushi Restaurant,4bf58dd8d48988d1d2941735,4f32af2119836c91c7efa08c,44.923644,-123.31671
SushiKyo,Sushi Restaurant,4bf58dd8d48988d1d2941735,4dfc081cb0fb84d7acdefe5f,44.91590080971112,-122.98056192056798
Tiga,Sushi Restaurant,4bf58dd8d48988d1d2941735,53096480498effe2b2a22e07,44.938611,-123.039006
503 Sushi Bar,Sushi Restaurant,4bf58dd8d48988d1d2941735,56070bd3498ed26b5210be68,44.940649,-123.03901699999999
Smile BBQ,Korean Restaurant,4bf58dd8d48988d113941735,4d37a250e6bdf04d97f15cb4,44.94125624662171,-123.03382407451056
Red Chopsticks,Korean Restaurant,4bf58dd8d48988d113941735,512c341ae4b04a7a2c51f148,44.925954,-123.315345
Golden Tent Mongolian Bar B-Q,Asian Restaurant,4bf58dd8d48988d142941735,4bd8e14e2e6f0f47b60e0908,44.89298629760742,-123.03496551513672
Love Love Teriyaki II,Asian Restaurant,4bf58dd8d48988d142941735,4b455d77f964a520670b26e3,44.969983682929126,-123.02991418237168
Changs Udon,Noodle House,4bf58dd8d48988d1d1941735,585ccebdfd27163c5260c359,44.902627,-123.058761
Thi Noodles,Noodle House,4bf58dd8d48988d1d1941735,585cd4309398ab0830ee0793,44.90335,-123.057118
Thai Lotus,Thai Restaurant,4bf58dd8d48988d149941735,4b7b49b6f964a5209a5c2fe3,44.98221358469501,-123.02469647526655
Bangkok Thai Bistro,Thai Restaurant,4bf58dd8d48988d149941735,5e5819c3e86a8f00083d6f4f,44.88559341430664,-123.03181457519531
Thai Cuisine Of Salem,Thai Restaurant,4bf58dd8d48988d149941735,5af0eb645a2c9100399fed93,44.913357,-123.044655
Bai Bua Thai Kitchen,Thai Restaurant,4bf58dd8d48988d149941735,5d07050d2081a20023329d94,44.9995002746582,-123.02745056152344
Thai Fusion,Thai Restaurant,4bf58dd8d48988d149941735,4b747347f964a5206fdd2de3,44.9078804420134,-123.04318946513517
Pho Keizer,Vietnamese Restaurant,4bf58dd8d48988d14a941735,5c4bb54a59c423002cdf3db0,44.975051,-123.027074
Simply Pho,Vietnamese Restaurant,4bf58dd8d48988d14a941735,5b402d4eca18ea002c16bd68,44.906261,-123.043922
Wooden Nickel Pub & Eatery,Restaurant,4bf58dd8d48988d1c4941735,4cfb32097945224b490285e7,44.83025538567047,-122.79423702662162
BG's Bar-B-Que,BBQ Joint,4bf58dd8d48988d1df931735,57778fc5498e0c728da54263,44.84752250776678,-123.2290082883606
Golden Crown,Chinese Restaurant,4bf58dd8d48988d145941735,4beda1013372c92832ee1114,44.942817,-123.03793999999999
China Gourmet,Chinese Restaurant,4bf58dd8d48988d145941735,5067c2d9e4b0fbec5706bfe4,44.952889823345814,-123.03065653793679
Adam's Rib Smokehouse - North Liberty,BBQ Joint,4bf58dd8d48988d1df931735,5ac667180c9f31405e286fb6,44.96576958192208,-123.03321719169615
Cindy Lou's BBQ,BBQ Joint,4bf58dd8d48988d1df931735,56aaa058498e7322589f097d,44.87223815917969,-123.02526092529297
Big Daves Sample This Barbeque and Catering,BBQ Joint,4bf58dd8d48988d1df931735,5393ced7498e574c69c04668,44.9162397991166,-123.01990977746853
Rolling Bagels,Bagel Shop,4bf58dd8d48988d179941735,4c7558c1b474a1cd1dffb8bf,44.951642,-122.981899
WinCo Foods,Supermarket,52f2ab2ebcbc57f1066b8b46,4b5cd1c1f964a520a14529e3,44.88789552294425,-123.034985241837
Baskin-Robbins,Bakery,4bf58dd8d48988d16a941735,4e4e4547bd4101d0d7a67b47,44.942218,-122.985794
Baskin-Robbins,Bakery,4bf58dd8d48988d16a941735,4c5dcc0d857ca593bff9cdcb,44.98425739116228,-123.02627289657295
Franz Family Bakeries,Bakery,4bf58dd8d48988d16a941735,4f322ea319836c91c7be38fa,44.97392,-123.01689
Emilio's bakery,Bakery,4bf58dd8d48988d16a941735,505a9a85e4b0ab68d29c4613,44.92842,-122.98429
Bakery Outlet,Bakery,4bf58dd8d48988d16a941735,4cd442e008f48cfa0190a585,44.968046,-122.99195291666666
Amity Bakery And Cafe,Bakery,4bf58dd8d48988d16a941735,5cba2e35336273002b993f33,45.115877,-123.206413
Karma  Coffee Bar,Bakery,4bf58dd8d48988d16a941735,5c292ae9dab4b1002c01897b,44.918767,-123.316372
Entenmann's Oroweat Foods Company,Bakery,4bf58dd8d48988d16a941735,4f322aa419836c91c7bcb894,44.968277,-122.99204499999999
Sweetly Baked,Bakery,4bf58dd8d48988d16a941735,563530f5498eb48580a3779e,44.9364013671875,-123.02603912353516
Daisy Mexican Bakery,Bakery,4bf58dd8d48988d16a941735,5067c382e4b0f64645b03cb1,44.949220000000004,-122.98151299999999
Fortaleza Bakery,Bakery,4bf58dd8d48988d16a941735,4f458f45e4b007cd8c6673ab,44.981790999999994,-123.02516100000001
Sin-able Sweets,Bakery,4bf58dd8d48988d16a941735,5a4c1eb4da2e0062763c1051,45.067914,-122.798983
Pure Decadence Pastries,Bakery,4bf58dd8d48988d16a941735,520d46d011d2200c49956c8f,44.88951445348458,-123.0603142613774
Azteca Bakery,Bakery,4bf58dd8d48988d16a941735,4f32751819836c91c7d9b3e6,44.954583,-122.982574
www.Table-This.com,Bakery,4bf58dd8d48988d16a941735,4e0245af62843b639cfe3675,44.9065425281059,-123.0222687157777
Miranda Bros Bakery,Bakery,4bf58dd8d48988d16a941735,55d69702498e7c9ee3221b08,44.967193,-122.983334
Michelle Ashley Custom Cakes,Bakery,4bf58dd8d48988d16a941735,5c0708009e3b650039ae8558,44.981617324573605,-123.0022269487381
Salvador's Bakery,Bakery,4bf58dd8d48988d16a941735,4ec1d3745c5c3d470da3ca4e,44.967702,-122.985887
Main St. Bistro & Coffee,Bistro,52e81612bcbc57f1066b79f1,59ee3f41d0a14966880c126f,45.005093,-122.78245600000001
Sisters Irish Bistro,Bistro,52e81612bcbc57f1066b79f1,53275675498ec2cc97ad26e6,44.94089889526367,-123.0385971069336
Mix,Bistro,52e81612bcbc57f1066b79f1,5456d0d6498eca78aced988e,44.952786,-123.030761
Flying Bee Ranch,Market,50be8ee891d4fa8dcc7199a7,51f426d9498e8667550a93a1,44.971384,-122.95502900000001
Jamba Juice,Juice Bar,4bf58dd8d48988d112941735,4ca0db14fee9b21ac6b2a245,45.006521,-123.000837
3Ten Water Street,American Restaurant,4bf58dd8d48988d14e941735,541252c1498edb7c4234b735,45.006732333092046,-122.78403565930239
New York Bagel & Bistro,Bagel Shop,4bf58dd8d48988d179941735,4c7e69e9d65437045326c3a2,44.84807082169508,-123.23149418950628
Jay's 99 Grill,American Restaurant,4bf58dd8d48988d14e941735,4b75aa13f964a5204d1b2ee3,44.84972842906826,-123.22948168856078
Su T Bar,Bubble Tea Shop,52e81612bcbc57f1066b7a0c,5a00e77c4382ab3740dd8cdc,44.950412,-122.984453
T4.,Bubble Tea Shop,52e81612bcbc57f1066b7a0c,5e1a9a56df6b9700083088d7,45.01173782348633,-122.99673461914062
Boba Boom,Bubble Tea Shop,52e81612bcbc57f1066b7a0c,5b513fb1b6b04b002c34a51c,44.942196,-123.03566
Lin’s Rolled Ice Cream,Bubble Tea Shop,52e81612bcbc57f1066b7a0c,5b5bccc41987ec002cd5a384,44.90083,-123.039148
HomeTown Buffet,Buffet,52e81612bcbc57f1066b79f4,4b818eadf964a520f2ae30e3,44.93827536078281,-122.98204788937264
Canton Gardens,Chinese Restaurant,4bf58dd8d48988d145941735,4df6b989d22df20cc2d58322,44.95094,-122.99562
Garden View Restaurant,American Restaurant,4bf58dd8d48988d14e941735,4df2c4d3aeb7170aa2eee12c,44.99168520628437,-122.7885515230164
Macleay Country Inn,Burger Joint,4bf58dd8d48988d16c941735,4c182f136a21c9b6bdbdc897,44.90755416893602,-122.89039785508042
Sonic Drive-In,Burger Joint,4bf58dd8d48988d16c941735,4b4a89e9f964a520388a26e3,44.9265203697901,-122.98281848430634
Carl's Jr.,Burger Joint,4bf58dd8d48988d16c941735,4b9aa446f964a520ebc835e3,44.94805476678949,-122.9841887287331
Wendy’s,Burger Joint,4bf58dd8d48988d16c941735,4b74cf15f964a5202af32de3,44.93838702586924,-122.98342333005166
Nancy's Burgers & Fries,Burger Joint,4bf58dd8d48988d16c941735,548d0264498e13d74f4acbc7,44.93820571899414,-122.98374938964844
Carl's Jr/Green Burrito,Burger Joint,4bf58dd8d48988d16c941735,4c2a899a2219c9282645a348,44.914873856949505,-122.9806618661948
Jack in the Box,Burger Joint,4bf58dd8d48988d16c941735,4bc7677615a7ef3b955679da,44.88628274285316,-123.03229987621307
Stonefront Tavern,Bar,4bf58dd8d48988d116941735,4bf893098d30d13a97110118,44.87254468384572,-123.02383787899267
Burger King,Burger Joint,4bf58dd8d48988d16c941735,4c44a6a7dd1f2d7f0a2880f9,44.90420232825534,-123.04044842720032
Chase Bar & Grill,Bar,4bf58dd8d48988d116941735,4ba1a9b3f964a5209ec637e3,44.850882,-123.200082
A&W Restaurant,Burger Joint,4bf58dd8d48988d16c941735,4bf88d7a5ec320a1d60889d3,44.8456384,-123.2297453
Ragin' River Steak Company,American Restaurant,4bf58dd8d48988d14e941735,4ad3ea1bf964a520e9e620e3,44.85235949163828,-123.18506763259514
In-N-Out Burger,Burger Joint,4bf58dd8d48988d16c941735,5d93f3a807183d0007442824,45.010801,-122.994918
Sonic Drive-In,Burger Joint,4bf58dd8d48988d16c941735,4b8db834f964a520750a33e3,44.979945,-123.0272395
Burger King,Burger Joint,4bf58dd8d48988d16c941735,4bb848ce53649c7482ed46fb,44.96315917986538,-122.9840898513794
Carl's Jr/Green Burrito,Burger Joint,4bf58dd8d48988d16c941735,4c2a8d728abca5937de0fe1f,44.92354934343997,-123.01431138838637
Carl's Jr.,Burger Joint,4bf58dd8d48988d16c941735,5875a6b45eef117e05864606,44.9452847,-123.0495485
Bob's Burger Express,Burger Joint,4bf58dd8d48988d16c941735,545a90a2498ea8ab3474fa61,44.943541801942644,-123.03633438902473
The Pub Sports Bar,Bar,4bf58dd8d48988d116941735,4b6e2947f964a520c4ae2ce3,44.99353216666667,-123.026093
The Oregon Garden,Garden,4bf58dd8d48988d15a941735,4b105eb0f964a520d96e23e3,44.99554879016604,-122.79270887374878
7-Eleven,Café,4bf58dd8d48988d16d941735,5e62dc833a6d6a00084ec287,44.9542034,-122.9831436
7-Eleven,Café,4bf58dd8d48988d16d941735,5cc04db9f1936e002c295382,44.8833378,-123.0317819
Star Duster Cafe,Restaurant,4bf58dd8d48988d1c4941735,58523ff503e29a60fefce98f,44.865552,-123.19636100000001
7-Eleven,Café,4bf58dd8d48988d16d941735,5cbf46d4c47cf9002cdaf161,44.85164744572607,-123.2133416588955
7-Eleven,Café,4bf58dd8d48988d16d941735,5cc04d07bd4009002c5796c7,44.8884306,-123.0611953
Pressed Coffee Roasters Cafe,Café,4bf58dd8d48988d16d941735,5c7871a425ecca002c0cc2b8,44.921693,-123.316418
The Salvation Army Ray & Joan Kroc Corps Community Center,Water Park,4bf58dd8d48988d193941735,4abe5ab3f964a520f08c20e3,44.97614001849251,-123.00938657990378
Capitol Coffee,Café,4bf58dd8d48988d16d941735,596d1306bb8d36091a88eea2,44.940723,-123.03563899999999
Café Yumm,Asian Restaurant,4bf58dd8d48988d142941735,5adb93206fd62622a514f15c,45.007374,-122.99859
7-Eleven,Convenience Store,4d954b0ea243a5684a65b473,4efa8ca3722e3406120aebe7,44.951809,-123.021413
Café L & I,Café,4bf58dd8d48988d16d941735,4bd74b9409ecb713198c467c,44.94137766745796,-123.0302855713534
Chinese Cafe,Chinese Restaurant,4bf58dd8d48988d145941735,4d88f9767139b1f7d417acd4,44.943619,-123.036033
krispy krunchy chicken,Cajun / Creole Restaurant,4bf58dd8d48988d17a941735,573e5189498e1ab3be19f4a4,45.114745,-123.206376
Kegger 2.0,Caribbean Restaurant,4bf58dd8d48988d144941735,568f3fca498e79a6c5ab32e4,44.903518235641044,-123.05906115290011
McDanks,Caribbean Restaurant,4bf58dd8d48988d144941735,50fcdda4e4b02c5d0622960b,44.94285202026367,-123.03343963623047
Corban University Common Grounds Cafe,Café,4bf58dd8d48988d16d941735,4ea851ae02d50d150eace5e3,44.883079528808594,-122.95448303222656
Wachovia Cafe,Café,4bf58dd8d48988d16d941735,4e4c47a9bd413c4cc6683011,44.92622755597001,-122.99598432138633
Mill creek station cafe,Café,4bf58dd8d48988d16d941735,4b5f57c3f964a5201fb529e3,44.927237516666665,-122.99319395
Spoons,Café,4bf58dd8d48988d16d941735,4c2a410c8abca593a662fe1f,44.89725112915039,-123.03841400146484
Coffee in Motion,Café,4bf58dd8d48988d16d941735,4ecd55d01081bc34fb7f4731,44.89301725533368,-123.03481578826904
Toadally Coffee,Café,4bf58dd8d48988d16d941735,4ced983c82125481a5fc5fa1,44.88583225031751,-123.0321519250196
Latte Play,Café,4bf58dd8d48988d16d941735,4e4a910962e13240b6ff435c,44.888319,-123.032299
I-JIVE ESPRESSO LLC,Café,4bf58dd8d48988d16d941735,56262b83498e9987e353442e,44.8434533,-123.0105336
Coffee in Motion,Café,4bf58dd8d48988d16d941735,5322e8ad498ed437d0e35efc,44.92314567845335,-123.01186680793761
Painters Hall Cafe,Café,4bf58dd8d48988d16d941735,4fda2d2ee4b0ea76a6ee2330,44.899924,-123.01904099999999
Sassy T,Café,4bf58dd8d48988d16d941735,4bfb0ef0f214a593f4baae0e,44.89225514701915,-123.00198227072563
Java Crew,Café,4bf58dd8d48988d16d941735,518d6bc2498e4ee640e3cfab,44.84825311749471,-123.23716692940239
Rick's Place,Café,4bf58dd8d48988d16d941735,4b9c3cd8f964a520d75736e3,44.84852719404035,-123.23545865021474
The Golden Horse Cafe,Café,4bf58dd8d48988d16d941735,55cd1e86498e3ddc4e86aa1d,44.851373785649336,-123.18469762802123
Java Crew (Keizer),Café,4bf58dd8d48988d16d941735,4d56d282143ca093163fc0fc,44.97612719957646,-123.02679569059455
Hebrews,Café,4bf58dd8d48988d16d941735,4dcd9e77ae603b786d1adf0e,44.966949462890625,-122.98175811767578
Court Street Dairy Lunch,Café,4bf58dd8d48988d16d941735,4a13979ff964a520ed771fe3,44.94132056341837,-123.03905635776327
Coffee In Motion South Salem,Café,4bf58dd8d48988d16d941735,527d13e611d206e59e33ce5a,44.910544,-123.044431
Bistro - Law,Café,4bf58dd8d48988d16d941735,4c7fba92fb74236ad2e6fab9,44.93643,-123.033585
Allann Bros Coffee,Café,4bf58dd8d48988d16d941735,4d73d0cd4ab5224bdf3dd297,44.941487,-123.037557
Lil's compound Cupcake,Café,4bf58dd8d48988d16d941735,4d8912787139b1f7eff1add4,44.937264,-123.031326
Applebee's Grill + Bar,American Restaurant,4bf58dd8d48988d14e941735,4b875f69f964a5206dbd31e3,44.94048605,-122.9836853
Toads Deli And Market,Deli / Bodega,4bf58dd8d48988d146941735,4ccb78acb571b60c6d4fcc65,45.04646670794585,-122.95611514060973
Libertys Best Market And Deli,Deli / Bodega,4bf58dd8d48988d146941735,4d504dbe9d493704ae4ac039,44.89577174954402,-123.05539851171667
Kwik Stop,Deli / Bodega,4bf58dd8d48988d146941735,4bca4fc5937ca593b3ada792,44.861014000000004,-123.18511000000001
Mt Angel Market And Deli,Deli / Bodega,4bf58dd8d48988d146941735,4c4754c4417b20a1523cdda9,45.0699927754712,-122.79823783657929
Freddie's Deli and Pub,Deli / Bodega,4bf58dd8d48988d146941735,4f32467219836c91c7c7985a,44.956897999999995,-122.98536499999999
TNT Market,Deli / Bodega,4bf58dd8d48988d146941735,4d0a3361454c6dcb26693d8e,45.006358,-122.792345
Courtyard Coffeehouse & Deli,Deli / Bodega,4bf58dd8d48988d146941735,4bccdf6b8920b713dcec9edc,44.921671862047646,-123.31597037396625
Dede's,Deli / Bodega,4bf58dd8d48988d146941735,4da3a1acbf22a14309e1ccf8,44.966333533333334,-122.98543775
Walmart Bakery,Deli / Bodega,4bf58dd8d48988d146941735,59935dce356b497a3d674db9,44.91309,-122.99735
Cooper's Deli,Deli / Bodega,4bf58dd8d48988d146941735,4f322a1d19836c91c7bc8539,44.948195,-122.9927
Deli In Safeway,Deli / Bodega,4bf58dd8d48988d146941735,51b1f8eb498e6a6146fbe473,44.930456346339994,-123.31256734205918
Peppers,Deli / Bodega,4bf58dd8d48988d146941735,5061e68f498e414fdc6a540f,45.004045,-122.793755
Cooper's Deli and Pub,Deli / Bodega,4bf58dd8d48988d146941735,4f447cb419836ed0019475f9,45.002708,-123.025994
Walmart Bakery,Deli / Bodega,4bf58dd8d48988d146941735,5992bcabb9ac38039a8bbc4c,44.96463143,-122.9835402
Blue Raeven,Bakery,4bf58dd8d48988d16a941735,4c719088376da0939832a4c6,45.11058599,-123.2075953
Cost Plus World Market,Furniture / Home Store,4bf58dd8d48988d1f8941735,4b6cf979f964a5200a612ce3,45.0097622,-122.9978689
Maravilla's Bakery,Bakery,4bf58dd8d48988d16a941735,4ca7a85144a8224b5ea80f40,44.966454999999996,-122.985343
The Little Cannoli Bakery,Bakery,4bf58dd8d48988d16a941735,4c0a7f0e7e3fc92893a9f382,44.940649,-123.03901699999999
Los Girasoles Panderia y Taqueria,Bakery,4bf58dd8d48988d16a941735,4f7d0123e4b0ffb6a34589c3,45.009878,-122.784146
Sweetsmith,Dessert Shop,4bf58dd8d48988d1d0941735,5bde58392b9844002cee6df5,44.940526,-123.039226
Green Apple,Dessert Shop,4bf58dd8d48988d1d0941735,4c4e2634db2c20a1e7d7ef73,44.999714,-123.027554
Great Harvest,Bakery,4bf58dd8d48988d16a941735,4b5b4a81f964a5200ff228e3,44.906422606967276,-123.04391705031851
Oregon Crepe Cafe & Bakery,Creperie,52e81612bcbc57f1066b79f2,4d588dca61e92d435dd77968,44.936783,-123.039208
Jubilee,Bakery,4bf58dd8d48988d16a941735,5d96b7847932c000084211be,44.851291,-123.184566
Diva Catering and Cakes,Cupcake Shop,4bf58dd8d48988d1bc941735,4b9aa06cf964a5209ac735e3,44.940662,-123.038411
Sugar. Sugar.,Candy Store,4bf58dd8d48988d117951735,4e6a962bae609509558e3858,44.940508,-123.039852
The Cupcake Cafe,Cupcake Shop,4bf58dd8d48988d1bc941735,4daf486143a1e3d9e642bf3c,44.938958287239075,-123.03732739
TWINSIES,Cupcake Shop,4bf58dd8d48988d1bc941735,4f6cd746e4b09530adc92d33,44.938941955566406,-123.03700256347656
Hostess Bread Store,Cupcake Shop,4bf58dd8d48988d1bc941735,4da228abb1c937049df8dea1,44.97242,-123.00274099999999
Limeberry Frozen Yogurt,Frozen Yogurt Shop,512e7cae91d4cbb4e5efe0af,4e5c40637d8bfb5e36b60e6e,44.94784812980516,-123.05194890872902
Limeberry Frozen Yogurt,Frozen Yogurt Shop,512e7cae91d4cbb4e5efe0af,5004dbaee4b0029cc23f3bdc,44.92874410135583,-123.31161975860596
LIMEberry,Dessert Shop,4bf58dd8d48988d1d0941735,4ca7f7a2d971b1f7141310e1,44.89100462674022,-123.06070455682034
EZ FREEZY,Frozen Yogurt Shop,512e7cae91d4cbb4e5efe0af,55e67da6498efa1148364411,45.012799,-122.99750800000001
Sweet Papaya,Dessert Shop,4bf58dd8d48988d1d0941735,4bf439bb706e20a1e517a998,44.94450492615469,-122.98319844261472
Green Apple Froyo,Frozen Yogurt Shop,512e7cae91d4cbb4e5efe0af,51ca6578498ea4c8a2b8b5d9,44.99973,-123.027619
LimeBerry,Frozen Yogurt Shop,512e7cae91d4cbb4e5efe0af,51f1b079498e29de2ca18f03,44.997529,-123.027029
Lime Berry,Frozen Yogurt Shop,512e7cae91d4cbb4e5efe0af,514fbce9e4b067955664971b,44.96229044569604,-122.98462631940258
Dairy Queen,Ice Cream Shop,4bf58dd8d48988d1c9941735,4b6b9476f964a52009112ce3,44.950897905534056,-123.05225417017937
Dairy Queen,Ice Cream Shop,4bf58dd8d48988d1c9941735,4bc9281b3740b713635c5e65,44.89840811154039,-123.03875796877492
Dairy Queen,Ice Cream Shop,4bf58dd8d48988d1c9941735,4ad2434ff964a52085e020e3,44.922417349615245,-123.011304885149
Baskin-Robbins,Ice Cream Shop,4bf58dd8d48988d1c9941735,4e4e4546bd4101d0d7a67b23,44.95040594037119,-122.99554421119421
Cold Stone Creamery,Ice Cream Shop,4bf58dd8d48988d1c9941735,4acfe2bdf964a520acd620e3,44.939084,-122.985339
22 Below,Ice Cream Shop,4bf58dd8d48988d1c9941735,59adfc1442d8c278976505a1,44.915752,-122.97756
Baskin-Robbins,Ice Cream Shop,4bf58dd8d48988d1c9941735,4cb372cdc939721eed3fb79e,44.942514883614926,-123.03710943391339
Main Street Ice Cream Parlor,Ice Cream Shop,4bf58dd8d48988d1c9941735,57d8fa83498e1c24c3e512e7,44.848567071337264,-123.23534846305847
Baskin-Robbins,Ice Cream Shop,4bf58dd8d48988d1c9941735,4f91bdaa7beb818efa884747,44.951078374895715,-123.05067062651531
Dolce Mama's,Ice Cream Shop,4bf58dd8d48988d1c9941735,57bfb048498e902a38655394,44.94047927856445,-123.0399169921875
Independence Ice Cream Shop,Ice Cream Shop,4bf58dd8d48988d1c9941735,5edaf82b181aee0008c05a2d,44.851882,-123.184752
Cascade Glacier Ice Cream And Candy Shop,Ice Cream Shop,4bf58dd8d48988d1c9941735,4db0a59c4df03036e8bf1ef8,44.848358154296875,-123.23558807373047
Mango Chill,Ice Cream Shop,4bf58dd8d48988d1c9941735,4ea48d5e29c2abc8dfae73cd,44.880998999999996,-123.029214
Spoonful,Ice Cream Shop,4bf58dd8d48988d1c9941735,4fd52b1de4b00f27bde78c0f,45.006229400634766,-122.78288269042969
Green Apple Self Serve Frozen Yogurt,Ice Cream Shop,4bf58dd8d48988d1c9941735,4e03fb56ae60ed89a80106b0,44.90096859429451,-123.03897226137568
Aladdin Bakery & Meat Shop,Bakery,4bf58dd8d48988d16a941735,4bb778253db7b7134efe1f9a,44.950022,-123.052076
Dessert Madrona,Pastry Shop,5744ccdfe4b0c0459246b4e2,58b71c5fa19e90497bd6cee7,44.903342,-123.057551
Pure Decadence Bakery,Bakery,4bf58dd8d48988d16a941735,4f3ae768e4b0258ec194007c,44.889468,-123.060174
IHOP,Diner,4bf58dd8d48988d147941735,4bafa937f964a520ef143ce3,44.93397834111294,-122.98360801213758
Elmer's Restaurant,Breakfast Spot,4bf58dd8d48988d143941735,4c02fff4187ec928401ab57b,44.94988812522015,-122.98507700900215
Covered Bridge,Café,4bf58dd8d48988d16d941735,4c1d03f2b9f876b0e1d87c46,44.79861495,-122.792057
The Ritz,Diner,4bf58dd8d48988d147941735,4cb34178eb65b1f7ff6882cd,44.92746336192113,-122.98364366182952
Rock-N-Rogers Diner,Diner,4bf58dd8d48988d147941735,4b99524ff964a520d47235e3,44.95038373995105,-122.99582779293617
Mr P's Bar & Grill,Diner,4bf58dd8d48988d147941735,4c34dd4b66e40f47af46ca8b,44.84238783414236,-122.9517854481748
Scallywags,Diner,4bf58dd8d48988d147941735,51d709b4498eb57e968cd0e7,44.80228832406447,-122.79463471225132
Dough And Hook,Donut Shop,4bf58dd8d48988d148941735,5d2cca6775e1ab002396c3a9,44.953671,-122.982194
Daynight Donuts,Donut Shop,4bf58dd8d48988d148941735,4ee4e6dae30005f8b84827c0,44.958188240413264,-123.01715096555486
Bearscat Bakehouse,Donut Shop,4bf58dd8d48988d148941735,5d1652828132b900238b1887,44.93867,-123.037394
Dude Donut City,Donut Shop,4bf58dd8d48988d148941735,5ee3b39c08e94f6b4e5aa9f7,44.9101,-122.978868
King Donuts,Donut Shop,4bf58dd8d48988d148941735,4b76e1b3f964a520d4662ee3,44.935476,-123.020402
Bigwig Donuts,Donut Shop,4bf58dd8d48988d148941735,5ccdb81fc8b2fb002c073dbc,44.94024,-123.038664
Donut Cafe,Donut Shop,4bf58dd8d48988d148941735,4c1b79e763750f472be3b467,44.88637924194336,-123.03377532958984
Donut Delite,Donut Shop,4bf58dd8d48988d148941735,4be05d8d2aed2d7f5e1ac86f,44.958135,-123.017112
Daylight Donuts,Donut Shop,4bf58dd8d48988d148941735,4e4e37d4bd4101d0d7a515f4,44.80099105834961,-122.7957992553711
Privet European Food & Bakery,Eastern European Restaurant,4bf58dd8d48988d109941735,50344880e4b0bd1420beda7f,44.8853614499504,-123.03389662066503
Denny's,Breakfast Spot,4bf58dd8d48988d143941735,4b75822ff964a5208f102ee3,44.94987901190564,-122.98764642431252
Falafel King Express,Falafel Restaurant,4bf58dd8d48988d10b941735,552ecc29498ee29a11c56d3d,44.940723,-123.03563899999999
Protein Warehouse,Falafel Restaurant,4bf58dd8d48988d10b941735,568fe13b498eb6d6ffdee39e,44.904153,-123.05763
Applebee's Grill + Bar,American Restaurant,4bf58dd8d48988d14e941735,4b0399a3f964a520dd4f22e3,44.96561192,-123.032211
Fairway At Salem Golf Course,Restaurant,4bf58dd8d48988d1c4941735,5a0747bfbed483485cfa62c7,44.912991,-123.072088
Salem Center,Shopping Mall,4bf58dd8d48988d1fd941735,4b5b4cc2f964a520c5f228e3,44.94280006263216,-123.03656831362538
Hewitt’s Greenwood Gardens,Food Stand,56aa371be4b08b9a8d57350b,5b317369340a58002ce39fbf,44.941616,-123.171012
White's Restaurant,Diner,4bf58dd8d48988d147941735,535815d2498e6f7f03989088,44.929945000000004,-123.043674
El Primo,Food Truck,4bf58dd8d48988d1cb941735,513d151ee4b072537ae07bde,45.046815271580684,-122.95422829366012
Beehive Station,Food Truck,4bf58dd8d48988d1cb941735,593db3eb8fb09e21302f8f82,44.87319982927081,-123.02536255986628
Saturday Market,Farmers Market,4bf58dd8d48988d1fa941735,4bb782fe53649c74d5c845fb,44.94322087585649,-123.02934600821335
Big Blue Thai BBQ,Food Truck,4bf58dd8d48988d1cb941735,57e1946e498e69ce8503433c,44.914749,-123.046176
The Banana Stand,Food Truck,4bf58dd8d48988d1cb941735,53237822498eeed9c54bfe06,44.985877,-123.03172
Promise Mediterranean food,Food Truck,4bf58dd8d48988d1cb941735,5775e4be498ee32e949b6456,44.852918214690604,-123.2296518315844
Bossi's BBQ,Food Truck,4bf58dd8d48988d1cb941735,5d79fb20b4fc9c000862a595,44.8733688,-123.0261675
Manna,Food Truck,4bf58dd8d48988d1cb941735,5c4f5d26bd4009002c85bb39,44.873192,-123.025223
grab a bite,Food Truck,4bf58dd8d48988d1cb941735,57056036498e95480d2e1edd,44.919864891053464,-123.04471377541134
Salem Food Cart Pod,Food Truck,4bf58dd8d48988d1cb941735,57b5fd6a498e1a4e27c6010b,44.950768,-123.03105
Pyro Pizza,Food Truck,4bf58dd8d48988d1cb941735,562bf348498efb84a4067775,44.93692694486503,-123.03553333317832
El Caporal Taqueria,Food Truck,4bf58dd8d48988d1cb941735,508c3485e4b0645d66fbfa0b,45.00665426782916,-122.79242181757652
Speedy Tacos,Food Truck,4bf58dd8d48988d1cb941735,4f4c2a84e4b04c96f934522d,44.93962,-123.041121
Mikes Food Mart,Food Truck,4bf58dd8d48988d1cb941735,4dbd9772fa8cee72736a8520,44.91864560709648,-122.9810922
Taqueria Rickys Tacos,Food Truck,4bf58dd8d48988d1cb941735,5175909e498e2324b565bc02,44.92767248705684,-122.98496935886703
Churro Stop,Food Truck,4bf58dd8d48988d1cb941735,5663bf81498ec93dd45a14a3,44.97464020456759,-122.98638012506159
OreVac West,Food Truck,4bf58dd8d48988d1cb941735,55890abd498e506a881a511f,45.085278422539794,-123.22675466537474
Cherry City Sweet Spot,Food Truck,4bf58dd8d48988d1cb941735,57887f7c498e6cad25e4a99c,44.960827,-123.03194599999999
Cafe at the Capitol,Food Truck,4bf58dd8d48988d1cb941735,4e4c479fbd413c4cc6682fb1,44.9387311718796,-123.03051016849916
Boon's Treasury,Pub,4bf58dd8d48988d11b941735,49e2e365f964a52065621fe3,44.94825190428453,-123.03331495281135
Patty's Off Center Cafe,Café,4bf58dd8d48988d16d941735,55184f7d498e208a93aa9281,44.93977800256061,-123.01761098141141
Leona's Bakery & Cafe,American Restaurant,4bf58dd8d48988d14e941735,4f7ca9e9e4b032112aabf8b9,45.066001,-122.80145
Popeyes Louisiana Kitchen,Fried Chicken Joint,4d4ae6fc7a7b7dea34424761,5a7274a9d69ed071a50f57ae,44.960845,-122.984019
Jack in the Box,Fried Chicken Joint,4d4ae6fc7a7b7dea34424761,4b695315f964a520d39e2be3,44.95305520664168,-122.98304781317711
Jack in the Box,Fried Chicken Joint,4d4ae6fc7a7b7dea34424761,4b568eabf964a520201528e3,44.92281298722408,-123.0117515097818
Popeyes Louisiana Kitchen,Fried Chicken Joint,4d4ae6fc7a7b7dea34424761,4ba007b2f964a520c45337e3,44.92382085150237,-123.01392711111109
Josey's Restaurant,American Restaurant,4bf58dd8d48988d14e941735,4c1131554a5c9521b3249213,44.96214428130616,-123.0281167260724
KFC,Fried Chicken Joint,4d4ae6fc7a7b7dea34424761,4b6395b0f964a52006852ae3,44.90202552452595,-123.03940688037397
KFC,Fried Chicken Joint,4d4ae6fc7a7b7dea34424761,4e5479ea1838d8d1dad14c38,44.97158172105762,-123.02890355700214
KFC,Fried Chicken Joint,4d4ae6fc7a7b7dea34424761,4f32675a19836c91c7d47005,44.9196662902832,-123.31566619873047
Noble Wave,Gastropub,4bf58dd8d48988d155941735,5ce4b4a0a5a315002cf7b792,44.940825947462336,-123.0386433005333
Independence Grill & Bar,Gastropub,4bf58dd8d48988d155941735,5e1812292825700008a85c3c,44.85250473022461,-123.18512725830078
Mt. Angel Sausage Co.,German Restaurant,4bf58dd8d48988d10d941735,4b78828ef964a5200bd32ee3,45.06739354711669,-122.79886440349728
Mount Angel Oktoberfest,General Entertainment,4bf58dd8d48988d1f1931735,55fb00bb498e96fd1d9e650c,45.067532,-122.799097
Frank-N-Steins,German Restaurant,4bf58dd8d48988d10d941735,4bdfa0d80d69b713122466d3,45.067895,-122.79888500000001
The Glockenspiel Restaurant And Pub,German Restaurant,4bf58dd8d48988d10d941735,4bdfa1b60d69b713312466d3,45.06809759903668,-122.79872585593726
Archive Coffee & Bar,Cocktail Bar,4bf58dd8d48988d11e941735,54692475498efbfc1ce35d93,44.940341,-123.038385
Nancy's Burgers & Fries,Burger Joint,4bf58dd8d48988d16c941735,51329e66e4b0ed272ccd3792,44.995365098561635,-123.02680427428506
Frozation Nation,Frozen Yogurt Shop,512e7cae91d4cbb4e5efe0af,5044308ce4b05e5c108afce1,44.940649,-123.03901699999999
Rafns',Gluten-free Restaurant,4c2cd86ed066bed06c3c5209,51d48265498e147a9ad14b13,44.94095221170715,-123.03680757499029
The Gallon House,Pub,4bf58dd8d48988d11b941735,51fc7477498e7a8ff0ff0e0b,45.00611569038008,-122.7826947191732
Gyro Stop,Greek Restaurant,4bf58dd8d48988d10e941735,5a7f9476ee7120492499e605,44.981790999999994,-123.02516100000001
Gyrolicious,Greek Restaurant,4bf58dd8d48988d10e941735,5b3556fa625a66002c544dfd,44.873096,-123.02555
Thermopylae 2,Greek Restaurant,4bf58dd8d48988d10e941735,5197f021498e065c9ba98d1a,44.91868082045219,-123.04505691045597
Wild Pineapple Grill,BBQ Joint,4bf58dd8d48988d1df931735,4c51dba9d797e21e8107c37c,44.92379,-123.02963516
Jefferson Station Cafe,Hawaiian Restaurant,52e81612bcbc57f1066b79fe,5b6ccda664c8e1002cad4b96,44.71937561035156,-123.0107192993164
Maya Maya Pacific Grill,Hawaiian Restaurant,52e81612bcbc57f1066b79fe,55772dc8498eaa54f999b8b6,44.88148880004883,-123.02848052978516
Harleys Daddys House,Hawaiian Restaurant,52e81612bcbc57f1066b79fe,5430381e498e34ea4ad4e8c0,44.922563,-122.984755
Java Joes,Hot Dog Joint,4bf58dd8d48988d16f941735,501d71e3e4b087a0ae0e008f,44.916704,-122.996506
Star Of India,Indian Restaurant,4bf58dd8d48988d10f941735,4c7181b3d7fab1f7b78661c9,44.954334366666664,-122.982954
Little India Food Cart,Indian Restaurant,4bf58dd8d48988d10f941735,5d9a9ee6b1148d0008a1e717,44.86654623659895,-123.05695269888825
India Palace,Indian Restaurant,4bf58dd8d48988d10f941735,4b7880fbf964a520b1d22ee3,44.94121226978181,-123.03863274409989
Cuisine India,Indian Restaurant,4bf58dd8d48988d10f941735,5db9df16b79de800085cb482,44.936782,-123.026873
Geppetto's,Italian Restaurant,4bf58dd8d48988d110941735,4d54a123cc65a143ab9b445e,44.937550036967906,-122.98195196627464
Papa Murphy's | Take 'N' Bake Pizza,Italian Restaurant,4bf58dd8d48988d110941735,4e4d3c1ebd413c4cc66f9f55,44.80731403490738,-122.79371751064953
Freddies Deli,Deli / Bodega,4bf58dd8d48988d146941735,4c8901eded0aa143c6ecadf3,44.890894834107435,-123.06032710582669
DaVinci Ristorante,Italian Restaurant,4bf58dd8d48988d110941735,4b7f3c6ef964a5203c2130e3,44.93876248564203,-123.03737163014083
Spaghetti Warehouse,Italian Restaurant,4bf58dd8d48988d110941735,4b33594cf964a520d01825e3,44.931965000000005,-123.04359199999999
Old Spaghetti Warehouse,Italian Restaurant,4bf58dd8d48988d110941735,4db36de8fa8c350240ce90eb,44.94085538498207,-123.03994025231154
Paneza Nellie,Italian Restaurant,4bf58dd8d48988d110941735,4c0ad8cba1b32d7fd41a9af0,44.83159637451172,-122.79413604736328
Jamba Juice,Juice Bar,4bf58dd8d48988d112941735,4bb6493df562ef3bf0ea2f97,44.965627,-122.98305
Fruit Box,Juice Bar,4bf58dd8d48988d112941735,5037ea14e4b03509a92462f8,44.953385,-122.981958
Jamba Juice,Juice Bar,4bf58dd8d48988d112941735,4bc909eeb6c49c7450c38d91,44.947619,-123.051864
Jamba Juice,Juice Bar,4bf58dd8d48988d112941735,4bc7c28b15a7ef3bd21e7ada,44.913217,-123.044822
Orange Julius,Juice Bar,4bf58dd8d48988d112941735,4c7da91bd6543704af38c1a2,44.941986,-122.985079
Smooth,Juice Bar,4bf58dd8d48988d112941735,5e2b10eba6b0c20008493479,44.910179138183594,-123.04376983642578
Raw-Blend Juicery,Juice Bar,4bf58dd8d48988d112941735,5eebff0a792cfb0008f97271,45.005804,-122.783472
irinas global cuisine,Argentinian Restaurant,4bf58dd8d48988d107941735,5351807d11d23915f77f51bf,45.006363,-122.784156
OPS,Peruvian Restaurant,4eb1bfa43b7b52c0e1adc2e8,56901f9d498e0b8681e53775,44.904662,-123.056203
Creekside Dining @ Salem Hospital,American Restaurant,4bf58dd8d48988d14e941735,4d9e125d83f36ea87c00c794,44.93290732593064,-123.03291258592364
Brown's Towne Lounge,Bar,4bf58dd8d48988d116941735,4b2c5cf2f964a5204ec624e3,44.9405,-123.03882
Al-Aqsa Fine Mediterranean Cuisine,Mediterranean Restaurant,4bf58dd8d48988d1c0941735,4e18dc6c52b123a586db95a5,44.88559341430664,-123.03181457519531
Alsham Mediterranean Restaurant,Mediterranean Restaurant,4bf58dd8d48988d1c0941735,4f501162e4b019e7931bc4c4,44.94062897547395,-123.03881470245985
Alisham,Mediterranean Restaurant,4bf58dd8d48988d1c0941735,51a7a165498ea221c20b98de,44.94059371948242,-123.03907775878906
Taco Bell,Mexican Restaurant,4bf58dd8d48988d1c1941735,4c8bfdeb5e048cfa8dc5c8cd,45.048838492925086,-122.97510419657911
Taco Bell,Mexican Restaurant,4bf58dd8d48988d1c1941735,4bc03306920eb713eaae182c,44.95474432817761,-122.98396572134175
Taco Bell,Mexican Restaurant,4bf58dd8d48988d1c1941735,4b6b2d21f964a520b0f72be3,45.007159658255404,-122.79031971379783
Alberto's Taco Shop,Mexican Restaurant,4bf58dd8d48988d1c1941735,4ed7e25429c216b5c921fbd0,44.950318128364025,-122.98518402035023
El Torito Market & Tacos,Mexican Restaurant,4bf58dd8d48988d1c1941735,5158f2a1e4b074237ebb6f19,44.955141,-122.982573
Del Taco,Mexican Restaurant,4bf58dd8d48988d1c1941735,4bce5bc7c564ef3bf43eeef0,44.93773354242747,-122.9834735068912
La Hacienda Real,Mexican Restaurant,4bf58dd8d48988d1c1941735,53855731498e8a3823920d3c,44.94979696564112,-122.98365023248961
Chula Vista,Mexican Restaurant,4bf58dd8d48988d1c1941735,4ce3096dce766dcbd52b21e3,44.928293531981446,-122.9840103357049
Casa Baez,Mexican Restaurant,4bf58dd8d48988d1c1941735,4b10470bf964a520de6c23e3,44.945521,-122.983065
La Fondita,Mexican Restaurant,4bf58dd8d48988d1c1941735,4fb83d88e4b09cfb45963ef4,44.939433,-122.99241599999999
Don Pedro,Mexican Restaurant,4bf58dd8d48988d1c1941735,4bc015d7b492d13a16e4a360,44.94862,-122.98344135
JJ's Mexican,Mexican Restaurant,4bf58dd8d48988d1c1941735,57f95f26498e0ac33a5272fc,44.938432,-122.986029
Azteca Bakery Y Tortaria,Mexican Restaurant,4bf58dd8d48988d1c1941735,4f370117e4b0179e5d29bffe,44.954837799072266,-122.98207092285156
Las Palomas,Mexican Restaurant,4bf58dd8d48988d1c1941735,4c539b5a1b46c9b62cfb36cd,44.91499518112614,-122.97877257127274
Muchas Gracias,Mexican Restaurant,4bf58dd8d48988d1c1941735,4d8fbbc8fa9437045b3622c6,44.915667,-122.977833
Taco Bell,Mexican Restaurant,4bf58dd8d48988d1c1941735,4bd276cf462cb7138b8cdc07,44.869478808492,-123.02301851996593
Dalia's Taqueria,Mexican Restaurant,4bf58dd8d48988d1c1941735,5ae0ee77f870fd002cd6775d,44.87296,-123.02515
Taco Bell,Mexican Restaurant,4bf58dd8d48988d1c1941735,4e967fcdcc21310d903bae1c,44.929328793742386,-123.31576885452263
Mira Mar Mexican Restaura,Mexican Restaurant,4bf58dd8d48988d1c1941735,4b764148f964a52078452ee3,44.92867940544938,-123.31121983024607
Los Dos Amigos,Mexican Restaurant,4bf58dd8d48988d1c1941735,4be214b9f07b0f475fb2f443,44.850082,-123.205913
Cozumel Family Mexican Restaurant,Mexican Restaurant,4bf58dd8d48988d1c1941735,4b7d9ff0f964a52097ca2fe3,44.892265,-123.058986
San Antonio Mexican Restaurant,Mexican Restaurant,4bf58dd8d48988d1c1941735,4c12e818b7b9c9281abda837,44.92963790893555,-123.30802154541016
Las Rocas,Mexican Restaurant,4bf58dd8d48988d1c1941735,4de31991d22d2a4ecdd6b925,44.853503,-123.18469
Muchas Gracias,Mexican Restaurant,4bf58dd8d48988d1c1941735,53680c68498e999c65369109,44.929824738152696,-123.3075172048021
Don Pedro Mexican Food,Mexican Restaurant,4bf58dd8d48988d1c1941735,4e3b4cb6e4cdab9b93271fce,44.972072,-123.003382
El Ranchero Market,Mexican Restaurant,4bf58dd8d48988d1c1941735,50d75e7fe4b091e3128bd011,44.961372,-122.98401799999999
Los Dos Amigos,Mexican Restaurant,4bf58dd8d48988d1c1941735,4bbd16ba4e069c74ae5a9ee3,44.966086768409625,-122.98342119975591
Bien Venidos Taqueria,Mexican Restaurant,4bf58dd8d48988d1c1941735,51af9708498ecd9d5f435c7b,44.96867,-122.986022
Garibaldi Family Mexican Restaurant,Mexican Restaurant,4bf58dd8d48988d1c1941735,4d4e12ffdb1b3704c629091f,44.941449,-123.05696
Casa Rojas Mexican Restaurant,Mexican Restaurant,4bf58dd8d48988d1c1941735,58a3b8c199584223816bc1e0,44.952714,-123.030957
El Grullense,Mexican Restaurant,4bf58dd8d48988d1c1941735,4c50806b375c0f4743bb7092,44.966775,-123.009518
Mariscos Las Islas Marias,Mexican Restaurant,4bf58dd8d48988d1c1941735,53bf617e498e4b1910f66a25,44.956897999999995,-122.98536499999999
Los Dos Hermanos,Mexican Restaurant,4bf58dd8d48988d1c1941735,4b92d164f964a520971e34e3,44.97772886386008,-123.02624014427404
La Sirenita,Mexican Restaurant,4bf58dd8d48988d1c1941735,4f77cabfe4b0e91fa74d18d2,45.004517,-123.023764
El Pollo Feliz,Mexican Restaurant,4bf58dd8d48988d1c1941735,4dd818131f6ee1468333edfe,44.96834945678711,-122.98673248291016
el Patron,Mexican Restaurant,4bf58dd8d48988d1c1941735,56eda079498eb3c16757dfec,44.98191,-123.025053
Nachos Locos,Mexican Restaurant,4bf58dd8d48988d1c1941735,57eff48e498e961dd9b23dc1,44.966454999999996,-122.985343
Monarca Mexican Grill,Mexican Restaurant,4bf58dd8d48988d1c1941735,4f46aa0ae4b0b0b998184a60,44.91765143520326,-123.02895064038876
El Charrito,Mexican Restaurant,4bf58dd8d48988d1c1941735,4bb3ccf92397b713c6a538b3,45.004496,-123.023678
Tony's Taco Shop,Mexican Restaurant,4bf58dd8d48988d1c1941735,5a7e9fd88194fc288f0f1846,44.950815000000006,-123.021992
Taqueria Mexican Grill,Mexican Restaurant,4bf58dd8d48988d1c1941735,5586010f498eb4d64e4c363d,44.950608576715446,-123.0332494810888
El Valle Oaxaqueño Mexican Food,Mexican Restaurant,4bf58dd8d48988d1c1941735,5e7bbeb95f5f3600082e6777,44.961761474609375,-123.02944946289062
Salsa Rica,Mexican Restaurant,4bf58dd8d48988d1c1941735,54adaf27498ee5fc1952a64e,44.981790999999994,-123.02516100000001
El Flamingo,Mexican Restaurant,4bf58dd8d48988d1c1941735,4f32ad8519836c91c7ef0839,44.968506,-123.006964
Victorico's Mexican Food,Mexican Restaurant,4bf58dd8d48988d1c1941735,5ea9d1422531f90008e8f3e9,44.97675100000001,-122.998889
Muchas Gracias Mexican Food,Mexican Restaurant,4bf58dd8d48988d1c1941735,5987bcb14c954c79645913e2,44.94925078524721,-123.05109545588495
Romana's Mexican Restaurant,Mexican Restaurant,4bf58dd8d48988d1c1941735,581e756bcb2566059ed0f821,44.95905,-123.016743
Habaneros,Mexican Restaurant,4bf58dd8d48988d1c1941735,4ab57e7bf964a520f67420e3,44.92419356074162,-123.01496966041205
Muchas Gracias,Mexican Restaurant,4bf58dd8d48988d1c1941735,4b8054f4f964a520d46830e3,44.98233027804455,-123.02692708790825
Ixtapa,Mexican Restaurant,4bf58dd8d48988d1c1941735,4bafcb47f964a5204d213ce3,44.80272030947349,-122.79516520455505
Muchas,Mexican Restaurant,4bf58dd8d48988d1c1941735,4bd9ccda0115c9b6b9bf7880,44.84707865423228,-123.22911951177983
Taco Del Mar,Burrito Place,4bf58dd8d48988d153941735,4aa47237f964a520d24620e3,44.9148823575664,-122.9984607223376
Muchas Gracias,Mexican Restaurant,4bf58dd8d48988d1c1941735,4ac94577f964a52076bf20e3,44.97193071929998,-123.02139352141603
Casa Burrito,Burrito Place,4bf58dd8d48988d153941735,57dda696498e90b09dac7b02,44.850896,-123.22929
19th At Battlecreek Clubhouse and Grill,Bar,4bf58dd8d48988d116941735,4cbe61ae020d468883665c38,44.870432218742614,-123.02336791331876
Taco Time,Taco Place,4bf58dd8d48988d151941735,4c2912783492a5933f5db828,44.942697,-122.98296
Tony's Tacos,Taco Place,4bf58dd8d48988d151941735,57257150498e3ca5128b5b73,44.95071034817648,-123.0218202176187
La Margarita Express,Mexican Restaurant,4bf58dd8d48988d1c1941735,4ac26365f964a520ea9820e3,44.942116134140875,-123.03592726136648
Carneceria Mi Casita,Mexican Restaurant,4bf58dd8d48988d1c1941735,4cf9b00cc51fa1cd1453dc2b,44.860862,-123.184978
La Margarita Company Restaurant & Grill,Mexican Restaurant,4bf58dd8d48988d1c1941735,4ac94facf964a520a1bf20e3,44.93845618856762,-123.03693529545806
Tacos Del Sur,Taco Place,4bf58dd8d48988d151941735,4b9d36b8f964a5200d9a36e3,44.9533805847168,-122.98277282714844
Azul's Taco House,Taco Place,4bf58dd8d48988d151941735,5cce2e5966fc65002c99c45d,44.940619,-123.057744
El Pique,Mexican Restaurant,4bf58dd8d48988d1c1941735,50e8aa57f31c1c8d605c6be0,44.929567609442465,-123.30886296040748
Los Baez,Mexican Restaurant,4bf58dd8d48988d1c1941735,4c0476a80d0e0f47a80e049a,44.912957,-123.04484199999999
Marco's Place #2,Taco Place,4bf58dd8d48988d151941735,534c955c498ede0769610c9f,44.942129,-122.985936
Los Girasoles,Mexican Restaurant,4bf58dd8d48988d1c1941735,4b86dd38f964a52089a231e3,45.0099578341127,-122.78440967079226
Chronic Tacos - Coming Soon,Taco Place,4bf58dd8d48988d151941735,5e39065d16c5a500073905e7,44.941757,-123.03749
Taco Truck,Taco Place,4bf58dd8d48988d151941735,4d2f627b6fc6f04dd5ac8945,45.00904863439997,-122.78612109731762
Taqueria La Michoacana,Taco Place,4bf58dd8d48988d151941735,4e9b4a2b2c5b4d6405b3c3dd,44.97004600931246,-122.96939412284442
Al-Aqsa Fine Middle Eastern Cuisine,Middle Eastern Restaurant,4bf58dd8d48988d115941735,4fbaa6bee4b0e24763951fa3,44.936251,-123.02537099999999
Al Aqsa Royvonne,Middle Eastern Restaurant,4bf58dd8d48988d115941735,51f1a194498ed5e3767350a0,44.885569,-123.032147
Rice bowl rest area,Middle Eastern Restaurant,4bf58dd8d48988d115941735,50e12b43e4b0e421f1959728,44.74074801584447,-123.05311724106889
Papa Murphy's | Take 'N' Bake Pizza,Pizza Place,4bf58dd8d48988d1ca941735,4bac10f5f964a520dde13ae3,45.00569566369026,-122.792464209631
Papa Murphy's,Pizza Place,4bf58dd8d48988d1ca941735,4f4446ff19836ed001933a79,45.005789,-122.79243899999999
Pizza Hut Express,Pizza Place,4bf58dd8d48988d1ca941735,58dbf92ee9233e27bfa2ac70,45.012717,-122.994516
Pizza Hut,Pizza Place,4bf58dd8d48988d1ca941735,4c5ffd743a3703bbfe14e406,44.9648833300563,-122.98320472240448
Figaro's Pizza & More,Pizza Place,4bf58dd8d48988d1ca941735,55681386498e21a74923ee63,44.943475,-122.98236100000001
Papa John's Pizza,Pizza Place,4bf58dd8d48988d1ca941735,4d8caacefe8d41bd2f0cd705,44.93949980764859,-122.98403929442247
Figaro's Pizza,Pizza Place,4bf58dd8d48988d1ca941735,4c5f4af7cd522d7f37c3cb3f,44.954503,-122.98314099999999
Papa Murphy's,Pizza Place,4bf58dd8d48988d1ca941735,4c2a7a94d1a10f478b82f664,44.935794363183305,-122.98255632084489
Domino's Pizza,Pizza Place,4bf58dd8d48988d1ca941735,4bb5740746d4a5931519c5c0,44.93383690084846,-122.98422530293465
Spud Bros Pizza,Pizza Place,4bf58dd8d48988d1ca941735,4da1374bb1c93704e42dcaa1,44.93449401855469,-122.98202514648438
Figaro's Pizza,Pizza Place,4bf58dd8d48988d1ca941735,4c746b67ff1fb60cb69ef3a7,44.932561241965566,-122.98287869688023
Figaro's Pizza,Pizza Place,4bf58dd8d48988d1ca941735,4e4d648bbd413c4cc670b86c,44.84077723345975,-122.87116594660087
Michealangelos Pizza,Pizza Place,4bf58dd8d48988d1ca941735,4ccc748875dcbfb70072a764,44.922500768331886,-122.98191087624684
Michelangelo's Italian Restaurant and Lounge,Pizza Place,4bf58dd8d48988d1ca941735,4f32163619836c91c7b47080,44.922549,-122.982147
Leonardis Pizza,Pizza Place,4bf58dd8d48988d1ca941735,4f326dae19836c91c7d6e404,44.91396713256836,-122.9759292602539
Backyard Pizzeria,Pizza Place,4bf58dd8d48988d1ca941735,4f3223eb19836c91c7ba16b1,44.8438720703125,-122.97772979736328
Papa Murphy's,Pizza Place,4bf58dd8d48988d1ca941735,4c0587fbd3842d7f5852be41,44.88331876762824,-123.03184030285648
Primetime Pizza South Salem,Pizza Place,4bf58dd8d48988d1ca941735,4c0073238c1076b0a0372071,44.88148880004883,-123.02848052978516
Odd Moes,Pizza Place,4bf58dd8d48988d1ca941735,515a2e29e4b0f13083d09f5f,44.885870000000004,-123.03318300000001
Brick Brothers Pizza,Pizza Place,4bf58dd8d48988d1ca941735,4d86b9cef1e56ea87aaea38a,44.898677,-123.04048015
Odd Moes Pizza,Pizza Place,4bf58dd8d48988d1ca941735,4e47319d922ee4def2932914,44.881600043745344,-123.02866816520691
Mendi's Pizza,Pizza Place,4bf58dd8d48988d1ca941735,4c4c9695712ac928fea78b6e,44.851071590436945,-123.21332950361086
Little Caesars Pizza,Pizza Place,4bf58dd8d48988d1ca941735,4c3b6f76def90f47edf1fd2d,44.848120597330116,-123.23143633149625
Abby's Legendary Pizza,Pizza Place,4bf58dd8d48988d1ca941735,511d3a93b0ed4a4d35966597,44.9294542,-123.3144589
Figaro's Pizza,Pizza Place,4bf58dd8d48988d1ca941735,4c3927820a71c9b6bd1b42c9,44.850815999999995,-123.204595
Domino's Pizza,Pizza Place,4bf58dd8d48988d1ca941735,59a63430002f4c7bdc3747d2,44.9480372,-123.0531669
Figaro's Pizza,Pizza Place,4bf58dd8d48988d1ca941735,4ee7a887d3e35d8e8145bb7d,44.92827076965458,-123.31290571723572
Garlic Jim's Famous Gourmet Pizza,Pizza Place,4bf58dd8d48988d1ca941735,4d7a75478e7759416579443a,44.891759,-123.060604
Indepizza,Pizza Place,4bf58dd8d48988d1ca941735,4f486b6fe4b08df2fb99dc95,44.851214344881676,-123.18447797036256
Garlic Jim's Pizza,Pizza Place,4bf58dd8d48988d1ca941735,4c2f8b2616adc928e8bebd9c,44.892058270885585,-123.0569144559371
Backstage,Pizza Place,4bf58dd8d48988d1ca941735,4f0a820de4b026657055ffe7,44.854150892134705,-123.23927689351983
Little Caesars Pizza,Pizza Place,4bf58dd8d48988d1ca941735,4be9f8ea6295c9b6bdf08508,44.96747009993226,-122.98276711637546
Abby's Legendary Pizza,Pizza Place,4bf58dd8d48988d1ca941735,4c369216dfb0e21eff66aba8,44.975981,-123.02791599999999
Odd Moe's Pizza,Restaurant,4bf58dd8d48988d1c4941735,4e473116922ee4def293288c,44.9685553,-122.9838625
Papa Murphy's,Pizza Place,4bf58dd8d48988d1ca941735,4d0d1a8b3905b1f7566f984b,44.96818014432505,-122.98301566016363
ƒ/stop Fitzgerald's,Bar,4bf58dd8d48988d116941735,4b78d94ff964a5207ae42ee3,44.96076586856197,-123.03193972244678
Figaro's Pizza,Pizza Place,4bf58dd8d48988d1ca941735,4d2e67d790cb236ae8946478,45.003893,-123.025348
Cascade Baking Co.,Bakery,4bf58dd8d48988d16a941735,4abd6b27f964a5202f8a20e3,44.940957,-123.041455
Domino's Pizza,Pizza Place,4bf58dd8d48988d1ca941735,4bac226cf964a52058e63ae3,44.96784574303111,-122.99395593433928
Straight From New York Pizza,Pizza Place,4bf58dd8d48988d1ca941735,4b47fec6f964a520094626e3,44.91315158311698,-123.04458645343658
Christo's Pizzeria,Pizza Place,4bf58dd8d48988d1ca941735,4a2f5da9f964a520c4981fe3,44.95033810123234,-123.0317416151457
Domino's Pizza,Pizza Place,4bf58dd8d48988d1ca941735,4c844311d34ca143a2823d80,44.987949,-123.0263581
Pizza Hut,Pizza Place,4bf58dd8d48988d1ca941735,4bbd29d5f57ba593c7d0adb9,44.989359,-123.02596000000001
Domino's Pizza,Pizza Place,4bf58dd8d48988d1ca941735,4ba6c10ff964a5207e6d39e3,44.906967386640595,-123.04282888770103
Little Caesars Pizza,Pizza Place,4bf58dd8d48988d1ca941735,4c5cb3606147be9aae289009,44.981790999999994,-123.02516100000001
Papa Murphy's | Take 'N' Bake Pizza,Pizza Place,4bf58dd8d48988d1ca941735,59b1ff9473fe25689b5e9bd6,44.914026959398434,-123.04606343889127
Island Pizza,Pizza Place,4bf58dd8d48988d1ca941735,5806776338fabcadbc6d1803,44.902778,-123.0588
Pizza Hut,Pizza Place,4bf58dd8d48988d1ca941735,4c5ffa263a3703bb0110e406,44.9084771,-123.0435981
Shotskis Wood Fired Pizza,Pizza Place,4bf58dd8d48988d1ca941735,5680b2f7498e836e00813017,44.93674075106095,-123.0267198066817
Odd Moe's Pizza - Edgewater St.,Pizza Place,4bf58dd8d48988d1ca941735,4de4038e52b1d38d2993bd8b,44.937506291192115,-123.06440178485914
Odd Moe's Pizza,Pizza Place,4bf58dd8d48988d1ca941735,5010b10ae4b07c3cf1534fe1,44.999368,-123.027575
Prime Time Pizza,Pizza Place,4bf58dd8d48988d1ca941735,4f32250019836c91c7ba8534,44.997507,-123.0286
Schultz part deux,Portuguese Restaurant,4def73e84765ae376e57713a,5143e339e4b092570523e24e,44.9411,-123.08
Busick Court,Breakfast Spot,4bf58dd8d48988d143941735,4a1392aff964a520e9771fe3,44.94165070371536,-123.04053040219226
Bo & Vine Burger Bar,Burger Joint,4bf58dd8d48988d16c941735,58b10531f7f8dd378c68e7a2,44.940459000000004,-123.038063
Papa Murphy's,Pizza Place,4bf58dd8d48988d1ca941735,4bff128e10899c74af6415c5,44.99833625179699,-123.02712218066293
Chalet,American Restaurant,4bf58dd8d48988d14e941735,4bc123d074a9a5932772d1f6,45.04940814546976,-122.97649397682758
May Trucking,Cafeteria,4bf58dd8d48988d128941735,4c4ba9965609c9b608db6891,45.05030373831288,-122.97578608657851
mcnary estates restaurant,American Restaurant,4bf58dd8d48988d14e941735,5317cc70498ef5175e43039a,45.01231710530379,-123.02426752320456
Wooden Nickel Pub & Eatery,BBQ Joint,4bf58dd8d48988d1df931735,4c045b569a7920a1f037d179,45.01188573873732,-122.80622159729273
Water Mountains Restaurant,Diner,4bf58dd8d48988d147941735,4d9bb32e7ae554810c283e74,44.98453,-122.75796100000001
KFC,Restaurant,4bf58dd8d48988d1c4941735,4e4e24f4bd4101d0d7a3464a,45.00709955967735,-122.79028583126546
Ixtapa,Mexican Restaurant,4bf58dd8d48988d1c1941735,4b8c33e5f964a520e1c332e3,45.003778503989736,-122.79362666440814
Thai Dish,Thai Restaurant,4bf58dd8d48988d149941735,4c046379310fc9b67249c761,45.005627000000004,-122.78375700000001
mac's place,Burger Joint,4bf58dd8d48988d16c941735,4b808495f964a5205d7930e3,45.00573744106128,-122.783636158953
Creekside Grill & the Grotto Martini Bar,Restaurant,4bf58dd8d48988d1c4941735,4bbfcfbb74a9a593d430cff6,45.004073,-122.782524
Love Love Teriyaki,Japanese Restaurant,4bf58dd8d48988d111941735,4b54c604f964a520c8cb27e3,44.938806551427824,-122.98633795254837
Neufeldt's Restaurant,Breakfast Spot,4bf58dd8d48988d143941735,4beeb82b2c082d7f50be3042,44.84058446401014,-122.86676195881824
Momiji's Japanese Crepes and Sushi,Sushi Restaurant,4bf58dd8d48988d1d2941735,4e98e8934fc602a58ac05938,44.969551781885684,-122.97090840598591
Willamette Valley Pie Company,Bakery,4bf58dd8d48988d16a941735,4be321eb21d5a593cf471811,44.967586032756614,-122.89099245559935
Nancy's Burgers and Fries,Burger Joint,4bf58dd8d48988d16c941735,551f389d498e9ac948d55835,44.888629,-123.033316
Aiberto's Mexican Food,Mexican Restaurant,4bf58dd8d48988d1c1941735,4c3fd1dde26920a13d1a5ce7,44.95040730095003,-122.98509673176181
Five Guys,Burger Joint,4bf58dd8d48988d16c941735,4bfd877bb68d0f4727ebe857,44.95659592360517,-122.98394301595593
Applebee's Grill + Bar,Restaurant,4bf58dd8d48988d1c4941735,4b6fab2bf964a52083f92ce3,44.88173245,-123.0294989
Chipotle Mexican Grill,Mexican Restaurant,4bf58dd8d48988d1c1941735,4a863767f964a520cd0020e3,44.941904680899,-122.98263703247318
Nagoya Steakhouse & Sushi,Japanese Restaurant,4bf58dd8d48988d111941735,56ecb886cd10f03a713c1c02,44.939374901838626,-122.98781627572906
The Pizza Peddler,Pizza Place,4bf58dd8d48988d1ca941735,4bbfd885abf495216275be93,44.840999603271484,-122.86824798583984
Dutch Bros. Coffee,Café,4bf58dd8d48988d16d941735,4ebd2bbd2c5bf3359a852018,44.91829177445793,-122.98076460037782
Shari's Cafe and Pies,American Restaurant,4bf58dd8d48988d14e941735,4c1bad238b3aa5930396975f,44.913421,-122.978286
Lucky Garden Chinese Restaurant,Chinese Restaurant,4bf58dd8d48988d145941735,55271bb5498e8b2e615a0e6b,44.915727,-122.97729
Sushi Kyo,Sushi Restaurant,4bf58dd8d48988d1d2941735,4b5cfad3f964a5207e4d29e3,44.91573592546784,-122.97818835788243
Burger Basket,Burger Joint,4bf58dd8d48988d16c941735,4a1396f2f964a520ec771fe3,44.923610882308324,-123.01204757174919
Foodmart RestArea,Diner,4bf58dd8d48988d147941735,51dbf48f498ed8d44a3e8af9,44.7449293583634,-123.05239712571137
Panda Express,Chinese Restaurant,4bf58dd8d48988d145941735,588e4e4c8b0ebb5d01b654bf,44.900323,-123.039108
Caffe 680,Café,4bf58dd8d48988d16d941735,4ca4e69eb7106dcbc6ba4fa5,44.922444,-122.994602
Turnaround Cafe,Café,4bf58dd8d48988d16d941735,54d7bfc9498ee4139d92df44,44.842973,-122.952378
Panda Express,Chinese Restaurant,4bf58dd8d48988d145941735,4b7a1179f964a52099212fe3,44.914984246870155,-122.9987091862432
Habeneros- Mexican Food,Mexican Restaurant,4bf58dd8d48988d1c1941735,4b838d4ff964a520800931e3,44.884445912759865,-123.03109869084719
Padington's Pizza,Pizza Place,4bf58dd8d48988d1ca941735,4b4a79bbf964a520ba8826e3,44.878962422516324,-123.02871223565938
Half Penny Bar & Grill,American Restaurant,4bf58dd8d48988d14e941735,4d068b0c347da1cdfa79368f,44.90208828286751,-123.04045409914247
Donatellos Pizza,Pizza Place,4bf58dd8d48988d1ca941735,50babd25e4b07e5a1637a2b5,44.89913605509384,-123.04019870348971
Denny's,Breakfast Spot,4bf58dd8d48988d143941735,4ab6867df964a520997720e3,44.9200724,-122.9969967
Los Arcos,Mexican Restaurant,4bf58dd8d48988d1c1941735,4afd156ef964a520e22622e3,44.89677843465845,-123.03706173148699
Qdoba,Mexican Restaurant,4bf58dd8d48988d1c1941735,55f9b56f498e05997b07219e,44.890105,-123.0350232
The Original Pancake House,Breakfast Spot,4bf58dd8d48988d143941735,4b41592af964a520aac525e3,44.88703700937924,-123.03265057352311
Chipotle Mexican Grill,Mexican Restaurant,4bf58dd8d48988d1c1941735,58c1ad52bbd6d16df64a29f0,44.89992656145715,-123.03932723632545
Hong Kong House,Chinese Restaurant,4bf58dd8d48988d145941735,4b84a820f964a520e53f31e3,44.90328606193792,-123.04101114256396
Lanxang Lao Thai Cuisine,Thai Restaurant,4bf58dd8d48988d149941735,4bc4c0374cdfc9b6881a9921,44.8815570052975,-123.02846457603351
Tup Tim,Thai Restaurant,4bf58dd8d48988d149941735,4cb1036d39458cfa2a1b08a0,44.90050722712936,-123.03886107109686
Little Caesars Pizza,Pizza Place,4bf58dd8d48988d1ca941735,4dec5c5f1f6e3ddebdfddf02,44.87067929518939,-123.02421786157979
Flight Deck Restaurant & Lounge,American Restaurant,4bf58dd8d48988d14e941735,4be46c36cf200f47d1f0113c,44.90707286911647,-123.00692890175505
Burgerville,Burger Joint,4bf58dd8d48988d16c941735,4a91de75f964a5202f1c20e3,44.848283,-123.228883
Yeasty Beasty,Pizza Place,4bf58dd8d48988d1ca941735,4fe12cfce4b0be4ebe221301,44.84844694352019,-123.23688121600127
Pizza Hut,Restaurant,4bf58dd8d48988d1c4941735,4bdf2c876198c9b6393516ff,44.947363,-123.048802
Daynight Donuts,Donut Shop,4bf58dd8d48988d148941735,4b6dcd29f964a52015912ce3,44.92149408016236,-123.0443790163797
Muchas Gracias,Mexican Restaurant,4bf58dd8d48988d1c1941735,508b2356e4b0d262168507ef,44.94869084705784,-123.05074461623553
Hong Kong Restaurant & Lounge,Chinese Restaurant,4bf58dd8d48988d145941735,4b75cd19f964a520b6252ee3,44.92696726009264,-123.31430511314922
Yang's Teriyaki Plus,Asian Restaurant,4bf58dd8d48988d142941735,4b913e23f964a5209bac33e3,44.84895696519841,-123.23763554280065
Panda Express,Chinese Restaurant,4bf58dd8d48988d145941735,4bd245b341b9ef3ba5d0fde5,44.94776400164465,-123.05135462824407
Love Love Teriyaki,Asian Restaurant,4bf58dd8d48988d142941735,4b6c83daf964a5201a402ce3,44.89145424352646,-123.06077542308107
La Herradura,Mexican Restaurant,4bf58dd8d48988d1c1941735,4d1e35316e8c3704609de49f,44.91969,-123.316398
Koyote's Tacos,Taco Place,4bf58dd8d48988d151941735,4f28366de4b0dbe3eb3f0017,44.84915544438525,-123.23721072461156
Pressed Coffee & Wine Bar,Café,4bf58dd8d48988d16d941735,53517a51498ef68eff29aa03,44.92172,-123.31635
Acme Cafe,American Restaurant,4bf58dd8d48988d14e941735,529a36ce11d24c02d305744e,44.912372831312375,-123.04611157921607
Starduster,Breakfast Spot,4bf58dd8d48988d143941735,4b6304fcf964a520075e2ae3,44.865538,-123.196453
San Antonios,Mexican Restaurant,4bf58dd8d48988d1c1941735,4c29448cce3fc928038d6e88,44.851029,-123.204577
Papa Murphy's,Pizza Place,4bf58dd8d48988d1ca941735,4ce3268611fca0938e7f66a8,44.84714638,-123.22878275
Domino's Pizza,Restaurant,4bf58dd8d48988d1c4941735,4b57bbb8f964a520683e28e3,44.921848544010125,-123.31642895936966
Mangiare Italian Restaurant,Italian Restaurant,4bf58dd8d48988d110941735,5095b8c6e4b07ba8c6911269,44.85286761102633,-123.1846015534028
The Pink House,Café,4bf58dd8d48988d16d941735,4b53839ff964a52093a027e3,44.85038415,-123.18658590316772
Chen's Family Restaurant,Chinese Restaurant,4bf58dd8d48988d145941735,4b593370f964a5201f8128e3,44.91954137012175,-123.3157378952643
Great Harvest Bread,Bakery,4bf58dd8d48988d16a941735,4ad0d426f964a52034da20e3,44.947772299759464,-123.05196270676976
Murphy's Grill,American Restaurant,4bf58dd8d48988d14e941735,4ac2a8aef964a520359a20e3,44.930056066666666,-123.309056
Latitude One,American Restaurant,4bf58dd8d48988d14e941735,4d8d71361d06b1f7dde0313b,44.920458527350874,-123.31651607062167
Papa Murphy's,Pizza Place,4bf58dd8d48988d1ca941735,4bdb78a4c79cc928bb0583e9,44.95122799464087,-123.0507610338969
Papa Murphy's | Take 'N' Bake Pizza,Restaurant,4bf58dd8d48988d1c4941735,4b75bfaef964a520c6212ee3,44.93003313372865,-123.3097424083487
Ugo's Pizza,Pizza Place,4bf58dd8d48988d1ca941735,4ccc7520511b236a668ff1c9,44.91977677958173,-123.31688357248848
Hitchin Post,Burger Joint,4bf58dd8d48988d16c941735,4c58cb83ec2520a1feb14d12,45.02172697383827,-123.01701497812766
Hops N Drops,American Restaurant,4bf58dd8d48988d14e941735,5ad00d67d7627e5decb54b9b,45.010908,-122.996635
Roger That BBQ,BBQ Joint,4bf58dd8d48988d1df931735,57b3bd46498ec4fb513a3737,44.97086697582455,-123.06638784895719
Panda Express,Chinese Restaurant,4bf58dd8d48988d145941735,4b980812f964a520872735e3,45.006715138621715,-122.9991383615912
Farrol's Restaurant,American Restaurant,4bf58dd8d48988d14e941735,4b6db1acf964a52022872ce3,44.924885273983925,-123.22797775268555
Sybil's Omelettes,Breakfast Spot,4bf58dd8d48988d143941735,4c82ada6d34ca143eeaa2e80,44.9334463298967,-123.01236500863814
La Hacienda Real,Mexican Restaurant,4bf58dd8d48988d1c1941735,4ab27e68f964a5205f6b20e3,44.94775996546147,-123.05020219297585
La Hacienda Real,Mexican Restaurant,4bf58dd8d48988d1c1941735,4bbbeb99e5b0d13a7cc36e7c,44.99810683053324,-123.0259741070873
Muchas Gracias,Mexican Restaurant,4bf58dd8d48988d1c1941735,4abc3575f964a520c88620e3,44.93438643823783,-123.01735422590755
Gustav's Bargarten,German Restaurant,4bf58dd8d48988d10d941735,5538663e498ecddb2fdac861,45.00883356564141,-122.99862622326029
Hawaiian Time,BBQ Joint,4bf58dd8d48988d1df931735,4e4d205da809b3dab3b2cee1,44.92324781246866,-123.01464473824123
Joe Mocha,Café,4bf58dd8d48988d16d941735,4bc0ed99461576b07f137b32,44.948537,-123.01264099999999
Taqueria Marco's Place,Mexican Restaurant,4bf58dd8d48988d1c1941735,4fc8198fe4b00f5598de0272,44.945425629788495,-123.03469201378961
The Original Pancake House,Breakfast Spot,4bf58dd8d48988d143941735,4b41597ef964a520afc525e3,44.98952134600456,-122.98842803190132
Chipotle Mexican Grill,Mexican Restaurant,4bf58dd8d48988d1c1941735,556a1ef4498e690bfba07d63,45.009895553396,-122.99643727324178
Sassy Onion,Breakfast Spot,4bf58dd8d48988d143941735,4a1391b7f964a520e7771fe3,44.93677185542839,-123.02644846407657
Mommy & Maddi's,American Restaurant,4bf58dd8d48988d14e941735,4c2661773703d13ab24ba536,44.993004,-123.027009
Straight From New York Pizza,Pizza Place,4bf58dd8d48988d1ca941735,4b47fe73f964a520004626e3,44.93041523078875,-123.04459060410201
Casamigos,Mexican Restaurant,4bf58dd8d48988d1c1941735,5a30aaacbfc6d0291def1de2,44.997123,-123.026831
Padington's Pizza,Pizza Place,4bf58dd8d48988d1ca941735,4b31278df964a5204a0125e3,44.96198165446584,-123.02980139634116
Taco Del Mar,Mexican Restaurant,4bf58dd8d48988d1c1941735,4b29b04ef964a5208ba224e3,45.0112792,-122.9979393
Five Guys,Burger Joint,4bf58dd8d48988d16c941735,4e77f98652b19ee4c7e6082e,44.911952707533366,-123.04475918579526
Love Love Teriyaki 2,Sushi Restaurant,4bf58dd8d48988d1d2941735,55cf8009498e3e51fa64a103,45.011359000000006,-122.99676799999999
Java Crew,Café,4bf58dd8d48988d16d941735,4d012454f7b38cfa1074d3c3,44.913007102801956,-123.03048552989897
Happy Bibimbap,Korean Restaurant,4bf58dd8d48988d113941735,531a9541498e25826ed3a0e1,44.941302484113194,-123.0337233295598
Iggy's Bar and Grill,Dive Bar,4bf58dd8d48988d118941735,4bdbc17e63c5c9b6b0962968,45.04726208786509,-122.95534934274015
Chuck E. Cheese,Arcade,4bf58dd8d48988d1e1931735,4cd752afa5b34688f7b49850,44.9670794218432,-122.98254732919554
Vagabond Brewing,Brewery,50327c8591d4c4b30a586d5d,5127b700e4b0461e6170bad0,44.98171597975141,-123.0015778541565
Home Place,American Restaurant,4bf58dd8d48988d14e941735,4bb920057421a593ae84c240,45.015150185118046,-122.78520641365947
Olive Garden,Italian Restaurant,4bf58dd8d48988d110941735,4b57ddaaf964a5205e4428e3,44.946140132434316,-122.98333086603537
Walery's Premium Pizza,Pizza Place,4bf58dd8d48988d1ca941735,4ababc07f964a520ad8220e3,44.93830173352432,-123.06454316734361
Izzy’s Pizza & Buffet - Salem,Pizza Place,4bf58dd8d48988d1ca941735,4bdce16fafe8c9b656715185,44.95603774854345,-122.98403721619357
MOD Pizza,Pizza Place,4bf58dd8d48988d1ca941735,55fdc846498e303deb2657ca,44.88959791,-123.03456242
Venti's Cafe + Basement Bar,Bar,4bf58dd8d48988d116941735,49e17f7cf964a520d2611fe3,44.94142992760873,-123.0393428847702
Basil & Board,Pizza Place,4bf58dd8d48988d1ca941735,5bef2295894eac002c9b75bb,44.93593,-123.040565
The Kitchen On Court Street,American Restaurant,4bf58dd8d48988d14e941735,541e3798498e4556becb6680,44.94070133203612,-123.03718474553006
Amadeus,New American Restaurant,4bf58dd8d48988d157941735,518d5643498e3007fa285802,44.94047278674341,-123.0387640310309
Gather,Breakfast Spot,4bf58dd8d48988d143941735,567712d9498ec4fc8226f8a8,45.005093,-122.78245600000001
W. Wallace,Restaurant,4bf58dd8d48988d1c4941735,5aebd12c9e0d54002c372297,44.940181,-123.039178
Mina's cafe,Café,4bf58dd8d48988d16d941735,52040fab498ed540ee63b00e,44.89874716630415,-123.0405073081788
Gamberetti's Italian Restaurant,Italian Restaurant,4bf58dd8d48988d110941735,4e6ab178aeb7c31e432e3ce6,44.93737084351139,-123.03898064914816
Straight From New York Pizza,Pizza Place,4bf58dd8d48988d1ca941735,49e2e461f964a52067621fe3,44.941545399996265,-123.03827492146463
Thai Orchid,Thai Restaurant,4bf58dd8d48988d149941735,4b64edf1f964a52079da2ae3,44.94207516044939,-123.03801621465234
Red Ginger,Thai Restaurant,4bf58dd8d48988d149941735,4bc4c9bdabf495212592c593,44.994881,-123.0269284
Subway,Sandwich Place,4bf58dd8d48988d1c5941735,4b6b598df964a520a8022ce3,45.048738528239184,-122.97497423782181
Subway,Sandwich Place,4bf58dd8d48988d1c5941735,4c1191f2f6ba9c74b8c31874,45.008576779977766,-122.78562744538635
Subway,Sandwich Place,4bf58dd8d48988d1c5941735,5e1378a318861d00082253ef,44.939147244444776,-122.98524383018628
Jimmy John's,Sandwich Place,4bf58dd8d48988d1c5941735,5155d4ece4b076976c7de46a,44.93798908612975,-122.98329247261319
Subway,Sandwich Place,4bf58dd8d48988d1c5941735,4ca004b619e4236a145b5e89,44.947296,-122.98286999999999
The Sandwich Shop,Sandwich Place,4bf58dd8d48988d1c5941735,4f84bc9f7716db87a233bd5d,44.94684251125631,-122.99094850598865
7-Eleven,Convenience Store,4d954b0ea243a5684a65b473,500eeaf06de406feaec69344,44.9217260459057,-122.982620000839
Subway,Sandwich Place,4bf58dd8d48988d1c5941735,4b4177a6f964a520f1c625e3,44.9149198,-122.9789684
Cozzie's NY Deli,Sandwich Place,4bf58dd8d48988d1c5941735,53e13e7a498e51e953acc24b,44.901423,-123.014722
Firehouse Subs,Sandwich Place,4bf58dd8d48988d1c5941735,574633e0498e5888a80a5070,44.90092,-123.03891
Jersey Mike's Subs,Sandwich Place,4bf58dd8d48988d1c5941735,5611a758498eed61083116d5,44.889746,-123.03478600000001
Subway,Sandwich Place,4bf58dd8d48988d1c5941735,4bf443b76a31d13aae8e952e,44.87053199644452,-123.02349215153788
Subway,Sandwich Place,4bf58dd8d48988d1c5941735,4e4de64cbd41b76bef950bf7,44.913917541503906,-122.9962387084961
Subway,Sandwich Place,4bf58dd8d48988d1c5941735,4c4aa9999c8d2d7f2257da69,44.9137801,-122.9963839
Subway,Sandwich Place,4bf58dd8d48988d1c5941735,4b882b9ff964a520b1e431e3,44.878781,-123.0257933
Subway - Wiltsey,Sandwich Place,4bf58dd8d48988d1c5941735,4de7abdcd16418879003ba51,44.8702392578125,-123.02337646484375
Tater's Cafe,Café,4bf58dd8d48988d16d941735,4b40edf0f964a520a8bd25e3,44.922942398595964,-123.3157232957437
Subway,Sandwich Place,4bf58dd8d48988d1c5941735,4d1e8db716cfb60ca9c44961,44.85008548267374,-123.20584343623477
Subway,Sandwich Place,4bf58dd8d48988d1c5941735,4bd1f2d5462cb7137f40db07,44.891451252991395,-123.05996140213222
Subway,Sandwich Place,4bf58dd8d48988d1c5941735,4bb39725a32876b009ed01fe,44.928103903969024,-123.31287819521924
Subway,Sandwich Place,4bf58dd8d48988d1c5941735,4bad0a55f964a52071273be3,44.84839255233806,-123.23554420767209
Subway,Sandwich Place,4bf58dd8d48988d1c5941735,5168a213e4b090ebaa7046c5,44.987273435652774,-122.98953565995112
Shari's Cafe and Pies,American Restaurant,4bf58dd8d48988d14e941735,4bb2e2d3715eef3be4ce85bb,44.996558,-123.02639
Jimmy John's,Sandwich Place,4bf58dd8d48988d1c5941735,53d28b90498ece88aeaa9d1c,44.96791285620781,-122.98306289522002
Gerry Frank's Konditorei,Sandwich Place,4bf58dd8d48988d1c5941735,4b524147f964a520057327e3,44.93221799796853,-123.04374380693736
Jersey Mike's Subs,Sandwich Place,4bf58dd8d48988d1c5941735,5811a03bd67cc6dbbc898b97,44.944731,-123.049364
Subway,Sandwich Place,4bf58dd8d48988d1c5941735,4bbd68cb8ec3d13a801b1c28,44.9626921290935,-122.9838976663411
JC's Pizzaria,Pizza Place,4bf58dd8d48988d1ca941735,4c17d1aed4d9c928a884ee29,44.986196521012,-123.02620841499214
Panera Bread,Sandwich Place,4bf58dd8d48988d1c5941735,538e334a498eecce5c727e53,44.913342,-123.045856
Charleys Philly Steaks,Sandwich Place,4bf58dd8d48988d1c5941735,4f32a71019836c91c7eca2e9,44.943619,-123.036033
Firehouse Subs,Sandwich Place,4bf58dd8d48988d1c5941735,5acb965a18d43b71cdad5761,45.00737573688139,-122.99832701683043
Subway,Sandwich Place,4bf58dd8d48988d1c5941735,4b4ea270f964a52010f326e3,44.93640728196124,-123.02563091784907
Keizer Sub Shop,Sandwich Place,4bf58dd8d48988d1c5941735,4b69d7a1f964a52090b72be3,44.98948188906493,-123.02616658646357
Subway,Sandwich Place,4bf58dd8d48988d1c5941735,4b8064c1f964a520406e30e3,44.9504168,-123.032015
Ritter's Housemade Foods,American Restaurant,4bf58dd8d48988d14e941735,57ca3293498eeafce357cc2d,44.940140798912935,-123.03850946470801
Jersey Mike's Subs,Sandwich Place,4bf58dd8d48988d1c5941735,58ae627f65ca011c77621814,44.99740698607454,-123.0284059792757
Subway,Sandwich Place,4bf58dd8d48988d1c5941735,4b75dd22f964a5205f2a2ee3,44.948198203355844,-122.99259167361072
SUBWAY,Sandwich Place,4bf58dd8d48988d1c5941735,4c75661e604a370414938249,45.00673328837538,-123.00096507258525
Subway,Sandwich Place,4bf58dd8d48988d1c5941735,4bc68972b387d13a111fc2e8,45.003893,-123.025348
Subway,Sandwich Place,4bf58dd8d48988d1c5941735,4bcf9ee2462cb7131b26d707,44.9474484505452,-123.04886983128256
Big Town Hero,Sandwich Place,4bf58dd8d48988d1c5941735,4cbb6c0e43ec6dcbdfd1aa31,44.998247,-123.027943
Subway,Sandwich Place,4bf58dd8d48988d1c5941735,4d48635e11618cfa6817d423,44.95873996943305,-123.01720807349739
Subway,Sandwich Place,4bf58dd8d48988d1c5941735,4b9ecee0f964a5207b0337e3,44.98173389739005,-123.0261444329426
Subway,Sandwich Place,4bf58dd8d48988d1c5941735,518025a8e4b0da486db59589,44.93786925962132,-123.0630990049125
Sal’s New York Deli,Sandwich Place,4bf58dd8d48988d1c5941735,5cb0e62951950e002cd69f79,44.936805725097656,-123.03914642333984
Jimmy John's,Sandwich Place,4bf58dd8d48988d1c5941735,4fb2a323e4b03b73d0a624e4,44.911991260699764,-123.04442901087553
Break Point Coffee Co.,Café,4bf58dd8d48988d16d941735,4bfd52d1bf6576b0a015adb8,44.93004727199951,-123.04387691816942
Harold's Deli,Sandwich Place,4bf58dd8d48988d1c5941735,4d77e9aed10fa1433397d13d,44.9443359375,-123.02845764160156
Great Harvest Bread,Sandwich Place,4bf58dd8d48988d1c5941735,4b5b892cf964a520630529e3,44.94135167903803,-123.0392081942728
Big Town Hero,Sandwich Place,4bf58dd8d48988d1c5941735,4c3384d9452620a139bc230f,44.96567916870117,-122.98316955566406
Subway,Sandwich Place,4bf58dd8d48988d1c5941735,5e1390fc41fd7a0007f28299,44.93781309041389,-123.06307240748822
Pita Pit,Sandwich Place,4bf58dd8d48988d1c5941735,4aba9ea2f964a520238220e3,44.939303,-123.036844
Subway,Sandwich Place,4bf58dd8d48988d1c5941735,4df14e56b0fb807158b8e080,44.9436531,-123.0367942
Harold's Docket Deli,Sandwich Place,4bf58dd8d48988d1c5941735,4acfb7ecf964a52080d520e3,44.939296,-123.02873500000001
Twisted Sandwiches,Sandwich Place,4bf58dd8d48988d1c5941735,5723af01cd1051829b217ec6,44.941083,-123.038614
Little Lois Cafe,Sandwich Place,4bf58dd8d48988d1c5941735,4c2e4b4c213c2d7fa8ea2e5d,44.94053945681407,-123.05894549818429
Subway,Sandwich Place,4bf58dd8d48988d1c5941735,50889c0fe4b0db48d73ef9b8,44.940739047390494,-123.03887495811841
Roly Poly Sandwiches,Sandwich Place,4bf58dd8d48988d1c5941735,4e4e3be8bd4101d0d7a5888f,44.94203567504883,-123.03836059570312
Subway,Sandwich Place,4bf58dd8d48988d1c5941735,4c7021359375a09369050637,44.9132723,-123.0448292
Subway Fairgrounds,Sandwich Place,4bf58dd8d48988d1c5941735,4e132c0ed22d759bae716171,44.974738,-123.000876
Red Lobster,Seafood Restaurant,4bf58dd8d48988d1ce941735,4b57cda8f964a520de4128e3,44.937367,-122.983388
Red Robin Gourmet Burgers and Brews,Burger Joint,4bf58dd8d48988d16c941735,4acfce27f964a52025d620e3,44.9415479,-122.9867232
Annette's Westgate,American Restaurant,4bf58dd8d48988d14e941735,4ad1232df964a520ffdc20e3,44.9397780412668,-123.06049179118548
McGrath's Fish House,Seafood Restaurant,4bf58dd8d48988d1ce941735,4ac6a01af964a5207cb520e3,44.93993640058265,-122.98701405771598
Windjammers,Seafood Restaurant,4bf58dd8d48988d1ce941735,4bb6bc171344b71357079e04,44.900351821345716,-123.03872043332657
La Hacienda Real,Mexican Restaurant,4bf58dd8d48988d1c1941735,4b57c756f964a520a54028e3,44.90243205273186,-123.03951101782437
Great Wall Buffet,Chinese Restaurant,4bf58dd8d48988d145941735,4ae36857f964a520a69421e3,44.913158,-123.0461
Bentley's Grill,American Restaurant,4bf58dd8d48988d14e941735,4a6d1667f964a52081d21fe3,44.93812195251678,-123.03992137242999
Chen's Dynasty,Chinese Restaurant,4bf58dd8d48988d145941735,4cb8f550a33bb1f7dcfa84fd,44.998247,-123.027943
Skippers - Seafood & Chowder,Seafood Restaurant,4bf58dd8d48988d1ce941735,4de80203cc3f0a1068340262,44.951079186486524,-122.98401474952698
Fuji Rice Time,Sushi Restaurant,4bf58dd8d48988d1d2941735,4b26cc34f964a5201a8124e3,44.93904778858696,-123.03767516990634
Newport Bay Restaurant,Seafood Restaurant,4bf58dd8d48988d1ce941735,4e4c4618bd413c4cc6682436,44.95053098365912,-122.99215941489274
China Buffet,Chinese Restaurant,4bf58dd8d48988d145941735,4e6925c42271a177695e2376,44.956897999999995,-122.98536499999999
Ocean Sushi and Teriyaki,Seafood Restaurant,4bf58dd8d48988d1ce941735,5749fe9f498e7d6098e36ebb,44.98138,-123.02701
ampm,Convenience Store,4d954b0ea243a5684a65b473,4bbd5fd2a0a0c9b661a21b0f,44.983569,-122.984
Fred Meyer Fuel Center,Snack Place,4bf58dd8d48988d1c7941735,4be05d2d4f15c928f6faca0b,44.9498575,-122.9867134
7-Eleven,Convenience Store,4d954b0ea243a5684a65b473,4cd859f18f949eb0632775ae,45.0049209110898,-123.024702462003
US Market,Snack Place,4bf58dd8d48988d1c7941735,4d56d55ee7f1a1cdc8ca0ba5,44.981790999999994,-123.02516100000001
Monmouth Market & Deli,Snack Place,4bf58dd8d48988d1c7941735,4ce578963598b1f7224d688d,44.848152,-123.2313
Plaid Pantry,Snack Place,4bf58dd8d48988d1c7941735,4c36b786ae2da59339bbfdc5,44.911441,-123.069972
Plaid Pantry,Convenience Store,4d954b0ea243a5684a65b473,5aea6ed8a5a315002cbbd481,44.971185,-123.064914
Auntie Anne's,Snack Place,4bf58dd8d48988d1c7941735,4c51e0ba384c76b0135def2a,44.942139714285716,-122.98607
US Market,Snack Place,4bf58dd8d48988d1c7941735,4bb38435715eef3b677086bb,44.968106,-122.99353700000002
Auntie Anne's,Snack Place,4bf58dd8d48988d1c7941735,4e4e2e7abd4101d0d7a421f9,44.943619,-123.036033
Center Market,Snack Place,4bf58dd8d48988d1c7941735,4d4b2c0ee8bfa1cd7684584c,44.91347526905944,-123.031002310441
Popcorn Fetti,Snack Place,4bf58dd8d48988d1c7941735,56aaaa7b498ea6e0e8fbc636,44.94373653607178,-122.9823654134454
Thursday Farmers' Market,Snack Place,4bf58dd8d48988d1c7941735,51b110cc498e9485f9c6f898,44.95203915634106,-123.02976461089109
smoker friendly,Snack Place,4bf58dd8d48988d1c7941735,4f97c158e4b0f1b74ef859df,44.948133,-122.98293799999999
Circle K,Snack Place,4bf58dd8d48988d1c7941735,4be611a15254d13a889760e1,44.91208267211914,-123.03045654296875
Kim Huong Vietnamese Restaurant,Vietnamese Restaurant,4bf58dd8d48988d14a941735,4b4e8f1df964a5205ff126e3,44.966449,-122.99783500000001
Cafe 22 West,Diner,4bf58dd8d48988d147941735,4a6df2d1f964a52062d31fe3,44.93206397485599,-123.13506217058801
RAM Restaurant & Brewery,Brewery,50327c8591d4c4b30a586d5d,4af64cabf964a520ef0222e3,44.93286157469885,-123.02956587150828
Word of Mouth Bistro,American Restaurant,4bf58dd8d48988d14e941735,49daa614f964a5209c5e1fe3,44.935709191790814,-123.0199672557803
Rock-N-Rogers Diner,Restaurant,4bf58dd8d48988d1c4941735,4eeff7766da156f4ab25c01d,44.93099364928634,-123.11237264976911
Lum Yuen Chinese Restaraunt,Chinese Restaurant,4bf58dd8d48988d145941735,4b888a4af964a5204eff31e3,44.967582193874826,-123.00782250717633
Super Pho,Vietnamese Restaurant,4bf58dd8d48988d14a941735,4be8b3c688ed2d7f5041cc1d,44.949030141028985,-122.98347273437739
table508,American Restaurant,4bf58dd8d48988d14e941735,53b1bb48498ee47d2a449893,44.93934112432936,-123.0370917516345
Panera Bread,Bakery,4bf58dd8d48988d16a941735,530f5d9911d2a2933628c2f9,45.00878851065006,-122.99630597233772
Thai Beer Restaurant,Thai Restaurant,4bf58dd8d48988d149941735,4b9146bbf964a52046af33e3,44.91497736729659,-122.97863872790589
Adam's Rib Smoke House - State Street,BBQ Joint,4bf58dd8d48988d1df931735,49e2e3e7f964a52066621fe3,44.936842430251914,-123.02705867840187
Momiji,Japanese Restaurant,4bf58dd8d48988d111941735,505d1d4be4b03a383a259de3,44.906048355051425,-123.04355038162451
Wild Pear,American Restaurant,4bf58dd8d48988d14e941735,4a139155f964a520e6771fe3,44.940117013850156,-123.03934040841035
Sweet Home Thai Cuisine,Thai Restaurant,4bf58dd8d48988d149941735,4b1439c6f964a520949f23e3,44.985277,-123.026182
Gold Dragon,Chinese Restaurant,4bf58dd8d48988d145941735,4b7df215f964a52084db2fe3,44.886969,-123.034471
Vietnam Restaurant,Vietnamese Restaurant,4bf58dd8d48988d14a941735,4bf34f546a31d13ab692942e,44.942817,-123.03793999999999
Sandwich Express,Sandwich Place,4bf58dd8d48988d1c5941735,4ac40b29f964a520fe9d20e3,44.92346230657835,-123.01504292678007
Ramen Ichiban,Japanese Restaurant,4bf58dd8d48988d111941735,4c26aac2f1272d7fc10e87c5,44.884963,-123.03262
Saigon,Vietnamese Restaurant,4bf58dd8d48988d14a941735,4d277bb9068e8cfab642bb4c,44.94089664396991,-123.03694505096941
Big Town Hero,Sandwich Place,4bf58dd8d48988d1c5941735,4d9cf2687958f04d92410bfa,44.797027587890625,-122.7947006225586
Flores Food,Tapas Restaurant,4bf58dd8d48988d1db931735,56834411498e7e260a8dee61,44.90775,-123.058747
Washington Street Steakhouse & Pub,Steakhouse,4bf58dd8d48988d1cc941735,4b5a30f1f964a52023b328e3,44.919222222013694,-123.31756281079016
Shari's Cafe and Pies,American Restaurant,4bf58dd8d48988d14e941735,4b6b1bc9f964a5205cf32be3,44.882464,-123.030923
Original Roadhouse Grill,Steakhouse,4bf58dd8d48988d1cc941735,4abc08aef964a5200f8620e3,44.93567841971266,-122.9833511222129
Rudy's Steakhouse,Steakhouse,4bf58dd8d48988d1cc941735,4bfc2ccae9d8c9288125b2c7,44.942247955751654,-123.03889274597167
Outback Steakhouse,Steakhouse,4bf58dd8d48988d1cc941735,4ba18bc9f964a520a1bf37e3,45.01094223365511,-122.99568672084943
Sizzler,Steakhouse,4bf58dd8d48988d1cc941735,4a90a1e7f964a520de1820e3,44.94469277944457,-122.98388417670549
Robert's Crossing,Steakhouse,4bf58dd8d48988d1cc941735,4d4e28758975a35d0be10ba8,44.902545611248655,-123.10038809233495
Willamette Valley Grill,Steakhouse,4bf58dd8d48988d1cc941735,4bfde9f0f61dc9b6b7cf9fde,44.95081131069552,-122.99422836513703
Wally's breakfast,Swiss Restaurant,4bf58dd8d48988d158941735,568fd86f498eb74f15fb3fdf,44.903504479043235,-123.05888482192235
Dutch Bros Coffee,Tea Room,4bf58dd8d48988d1dc931735,5bf42f57ee7120002ceab031,44.8807867181934,-123.02833962268062
Dutch Bros Coffee,Tea Room,4bf58dd8d48988d1dc931735,5d200944c195980023409931,44.96845445100603,-123.02805794368174
Sweet Spot Fruit Tea & Desserts,Tea Room,4bf58dd8d48988d1dc931735,5dd8a5f07906990008503a59,44.912,-123.04434
Herbalife,Tea Room,4bf58dd8d48988d1dc931735,51b6092e498e675b510d2f24,44.968574,-122.984207
"MFCP – Motion & Flow Control Products, Inc. – Parker Store",Truck Stop,57558b36e4b065ecebd306dd,5db11bd1fe7ae00008a7edb2,44.91690852963354,-123.0277669429779
Café Yumm!,Vegetarian / Vegan Restaurant,4bf58dd8d48988d1d3941735,52f0545d498e62363683eb59,44.91390999429903,-123.0457885371019
Marco Polo,Vegetarian / Vegan Restaurant,4bf58dd8d48988d1d3941735,4acd3518f964a52063cb20e3,44.93743050104234,-123.03982912647177
The Tasty Cafe,Vegetarian / Vegan Restaurant,4bf58dd8d48988d1d3941735,57f9b2c6498e3b6287eefed4,44.95364,-122.982088
Wingstop,Wings Joint,4bf58dd8d48988d14c941735,552d4e2d498e0733657eab76,44.96585596363489,-122.98297922042741
Buffalo Wild Wings,Wings Joint,4bf58dd8d48988d14c941735,4fa7fe10e4b017a5e1c94512,44.938052863094924,-122.98488245175577
Best Little Roadhouse,Steakhouse,4bf58dd8d48988d1cc941735,4b52743df964a5200c7e27e3,44.92987158539499,-123.04419726409797
Pietro's Pizza,Pizza Place,4bf58dd8d48988d1ca941735,4bc766ec14d79521b45067e9,44.949364,-122.9930594
Half Time Bar & Grill,Bar,4bf58dd8d48988d116941735,4d6dcce530d5b1f7bb59be42,44.947625,-123.032855
Round Table Pizza,Wings Joint,4bf58dd8d48988d14c941735,4c2a5377b34ad13ad118e8ce,45.008752847334016,-122.99932504459753
Arena Sports Bar & Grill,Sports Bar,4bf58dd8d48988d11d941735,4c9d4a6303133704cba75dd5,44.85236374141074,-123.18472730969692
KFC,Fried Chicken Joint,4d4ae6fc7a7b7dea34424761,4f3244c419836c91c7c6e811,44.942385701750354,-122.98255804968551
Figaro's Pizza,Wings Joint,4bf58dd8d48988d14c941735,4ad139e4f964a52090dd20e3,44.952360999999996,-123.051648
