name,category,category_id,venue_id,lat,long
The Pacific Rim,American Restaurant,4bf58dd8d48988d14e941735,57ed9792cd10af69eb1b1472,46.674012,-120.463103
Arby's,American Restaurant,4bf58dd8d48988d14e941735,4d4df72a72eba143384b4a12,46.59957367826712,-120.56225788603115
The Apple Tree Grill,American Restaurant,4bf58dd8d48988d14e941735,557c9087498e13850733c24e,46.562984466552734,-120.62593078613281
Daniel's Kitchen,American Restaurant,4bf58dd8d48988d14e941735,59c7e6b9628c8309481244e3,46.653797,-120.527772
Shari's Cafe and Pies,American Restaurant,4bf58dd8d48988d14e941735,517d8fd8e4b0db4bd00cd7b2,46.562684999999995,-120.476565
The Barn Door,American Restaurant,4bf58dd8d48988d14e941735,5ce7a62ea2c00b002cba3e7d,46.5538702,-120.3837183
Apple Tree Resort,American Restaurant,4bf58dd8d48988d14e941735,4b789355f964a520d6d72ee3,46.563053151389155,-120.62594626769724
Sloppy Slaw Burgers & Ribs,American Restaurant,4bf58dd8d48988d14e941735,4f4953c0e4b0a69abd34f760,46.585808475287685,-120.55245647100513
The Depot Restaurant & Lounge,American Restaurant,4bf58dd8d48988d14e941735,4b92ba02f964a520af1534e3,46.602802000000004,-120.508303
Last Frontier Restaurant And Lounge,American Restaurant,4bf58dd8d48988d14e941735,4e3df5bab61cb577be7f688f,46.585398,-120.562164
The Lone Star Ranch House,American Restaurant,4bf58dd8d48988d14e941735,50bfe90ce4b033766338b8c8,46.558642,-120.626985
Bill's Family Restaurant,American Restaurant,4bf58dd8d48988d14e941735,4f6b9a32e4b082bd4bcba793,46.44806631120523,-120.42808062211236
Reno's on the Runway,American Restaurant,4bf58dd8d48988d14e941735,5ceeec621acf11002c5025a9,46.5690769,-120.5303434
WaterFire Restaurant,New American Restaurant,4bf58dd8d48988d157941735,5cd052dd9d746800390bc6c2,46.57582092285156,-120.56253051757812
Crafted,New American Restaurant,4bf58dd8d48988d157941735,59558b8a8a6f17723f9aa15c,46.601281,-120.506148
"1,2,3 Pita",New American Restaurant,4bf58dd8d48988d157941735,563e7db7cd10abb6a4620e24,46.6552,-120.53002099999999
Twigs Bistro & Martini Bar,New American Restaurant,4bf58dd8d48988d157941735,52f65bfc38b182419b7f02b7,46.5445,-120.7444
New York Teriyaki,Asian Restaurant,4bf58dd8d48988d142941735,5119a126e4b0e74f6745ae5f,46.663583,-120.521358
Flightline Gas Station & Teriyaki House,Asian Restaurant,4bf58dd8d48988d142941735,4ca1119f3244b21a7c553803,46.573692321777344,-120.54776763916016
George's Wok & Grill_enroll,Chinese Restaurant,4bf58dd8d48988d145941735,4d71a5be3815f04d628f8167,46.583292,-120.615178
Peking Palace,Chinese Restaurant,4bf58dd8d48988d145941735,4e399c4baeb72d06596a7012,46.610291214071154,-120.51064887685354
Keoki's,Chinese Restaurant,4bf58dd8d48988d145941735,4bc12709abf495210eadc093,46.60444980848128,-120.5376673040297
Chinese Gourmet Garden,Chinese Restaurant,4bf58dd8d48988d145941735,4be07b9a98f2a593b266c25a,46.6555,-120.53094685077667
Grand Buffet,Chinese Restaurant,4bf58dd8d48988d145941735,4e13b9cf7d8b4c0d6308e7b6,46.602346000000004,-120.50671499999999
Ding Ho,Chinese Restaurant,4bf58dd8d48988d145941735,4daa0bbb43a1128196eebf08,46.570275,-120.529959
Great Shang Hai,Chinese Restaurant,4bf58dd8d48988d145941735,52c0dcec498e754b1e3f2fd5,46.584893,-120.50461899999999
lutong pinoy,Filipino Restaurant,4eb1bd1c3b7b55596b4a748f,500ef953e4b0302f93816bd9,46.59976257749578,-120.52978292636168
New York Teriyaki,Japanese Restaurant,4bf58dd8d48988d111941735,4bb14276f964a520c5873ce3,46.564256303277766,-120.48126596499756
Teriyaki Grille of Selah,Japanese Restaurant,4bf58dd8d48988d111941735,4f328df119836c91c7e32e8f,46.663604736328125,-120.52145385742188
Ichiban West,Japanese Restaurant,4bf58dd8d48988d111941735,4f3202a519833175d60969d6,46.599886,-120.565036
New York Teriyaki,Sushi Restaurant,4bf58dd8d48988d1d2941735,4b9acf4cf964a520e5d735e3,46.613756,-120.51203000000001
Wok Teriyaki,Korean Restaurant,4bf58dd8d48988d113941735,4d1414efbb488cfae8ff93d4,46.57077407836914,-120.480224609375
Seoul Teri-House,Korean Restaurant,4bf58dd8d48988d113941735,5750e011498e78899589c26e,46.599969,-120.519153
Captain Crab & Ramen,Noodle House,4bf58dd8d48988d1d1941735,5d2d34d46c5b6200234dc166,46.593688,-120.605066
Mongolian Grill,Asian Restaurant,4bf58dd8d48988d142941735,4c81a64dd4e237044f4a6088,46.568790435791016,-120.48014068603516
E.Z Tiger,Thai Restaurant,4bf58dd8d48988d149941735,5b6ce4a822d49000396be012,46.601346,-120.502798
Thai House Restaurant,Thai Restaurant,4bf58dd8d48988d149941735,4ea64ba1b8f7b8a60b31fd17,46.603006,-120.50531000000001
Bamboo Thai Cuisine,Thai Restaurant,4bf58dd8d48988d149941735,574cc189498e27b0d2d01dc0,46.597936,-120.50451299999999
Yakima Thai Cuisine,Thai Restaurant,4bf58dd8d48988d149941735,57786350498e605ee1a04454,46.603007,-120.5073
Tea Garden,Thai Restaurant,4bf58dd8d48988d149941735,4c21391099282d7f9a4465b0,46.601296000000005,-120.501127
Pho King Crab,Vietnamese Restaurant,4bf58dd8d48988d14a941735,5276d69d11d2b8b44dc4888d,46.570959,-120.480154
Pho Tan Vietnamese Restaurant,Vietnamese Restaurant,4bf58dd8d48988d14a941735,4be35faf660ec9284002cc3b,46.59360908559552,-120.60508508914891
Pho Tan Vietnamese Restaurant,Vietnamese Restaurant,4bf58dd8d48988d14a941735,4be35fa7b02ec9b645704fc0,46.676741,-120.652619
Lariat BBQ,BBQ Joint,4bf58dd8d48988d1df931735,49be88f6f964a520b7541fe3,46.599620116666664,-120.5188125371933
Golden wheel,Chinese Restaurant,4bf58dd8d48988d145941735,4c01a77d1747a59308e45dca,46.601664,-120.505335
The Lariat Bar-b-q,BBQ Joint,4bf58dd8d48988d1df931735,4f45003e19836ed001980a18,46.59961,-120.51846
Miz Dee's BBQ,BBQ Joint,4bf58dd8d48988d1df931735,4eadb6117ee59f1609113f1b,46.600031,-120.51677
La Morenita Bakery,Bakery,4bf58dd8d48988d16a941735,4f32973119836c91c7e6aa83,46.59976,-120.50467
La Morenta Panaderia,Bakery,4bf58dd8d48988d16a941735,4edba3df6c2547bc642215a4,46.600133866061405,-120.5028368979145
Buhrmaster Baking Co,Bakery,4bf58dd8d48988d16a941735,4eb43dea9a52ad1e3e6c3c4e,46.65136510663824,-120.52919249175503
Panderia Delicias,Bakery,4bf58dd8d48988d16a941735,5946939ab6b04b6c8b92240c,46.585712,-120.5403
Bimbo Bread Bakery Outlet,Bakery,4bf58dd8d48988d16a941735,4cf8293bee0ea143317f3a97,46.592079162597656,-120.50022888183594
Shorty's Treats And Cakes,Bakery,4bf58dd8d48988d16a941735,50576b42e4b01e46226b715c,46.605107,-120.503965
Shorty's Sweets N Cakes,Bakery,4bf58dd8d48988d16a941735,520ab3f0498ef116e2ebd86e,46.605290000000004,-120.503868
Winegar’s Homemade Ice Cream And Coffee,Bakery,4bf58dd8d48988d16a941735,5aef51a7d3cce8002c2d095a,46.602767,-120.505098
Best Western Plus Ahtanum Inn,Hotel,4bf58dd8d48988d1fa931735,4bc3b980dce4eee12cba719d,46.5673176,-120.4742181
riverside bistro,Bistro,52e81612bcbc57f1066b79f1,5372cdd0498e9866d0f1850b,46.60556392026402,-120.47975883042814
Greystone Restaurant,Restaurant,4bf58dd8d48988d1c4941735,4bc9f3fe0687ef3b73dadacc,46.60224533081055,-120.50749206542969
River Ridge Golf Course,Golf Course,4bf58dd8d48988d1e6941735,4c1d9667fcf8c9b6c91eac0b,46.6386979,-120.5261181
Clarion Hotel & Conference Center,Convention Center,4bf58dd8d48988d1ff931735,4b9b1029f964a520d4ef35e3,46.620924907029,-120.51111912220104
Papa Baird's,American Restaurant,4bf58dd8d48988d14e941735,4bb0f4def964a520cb6d3ce3,46.60599136352539,-120.44506072998047
mangoz grill,Asian Restaurant,4bf58dd8d48988d142941735,4b901841f964a520347533e3,46.598867,-120.522184
McDonald's,Breakfast Spot,4bf58dd8d48988d143941735,4b67017df964a520ae342be3,46.5674696,-120.4851969
Casino Caribbean,Casino,4bf58dd8d48988d17c941735,4bf8ef208d30d13a81890118,46.5846109,-120.4761634
McDonald's,Breakfast Spot,4bf58dd8d48988d143941735,4c240dc0905a0f47b13e5f60,46.60385573381018,-120.53104475140572
Sweet Bees Restaurant,American Restaurant,4bf58dd8d48988d14e941735,531c9ee1498eaa0162a8bee2,46.59982789749369,-120.52986009110431
McDonald's,Breakfast Spot,4bf58dd8d48988d143941735,4e1f81307d8b71715b974de6,46.60146927964117,-120.48029601573944
McDonald's,Breakfast Spot,4bf58dd8d48988d143941735,4ba40561f964a520927838e3,46.586542871459436,-120.49680056599072
Apple Tree Golf Course,Golf Course,4bf58dd8d48988d1e6941735,4bc9489fcc8cd13ac781bbcf,46.56304448274338,-120.62593545068957
Old Country Buffet,Buffet,52e81612bcbc57f1066b79f4,4c378bfcdfb0e21ee8fcaca8,46.56571748030799,-120.48220177292136
Chinese Buffet,Chinese Restaurant,4bf58dd8d48988d145941735,4bf8b03b5ec320a1c84489d3,46.584312438964844,-120.5444107055664
Kiki's Chinese Restaurant,Chinese Restaurant,4bf58dd8d48988d145941735,4c75c7bd66be6dcbbb95c10f,46.600228,-120.516026
Sonic Drive-In,Burger Joint,4bf58dd8d48988d16c941735,4bf8415d5ec320a1d76c88d3,46.5855299301873,-120.496125746599
Arctic Circle,Burger Joint,4bf58dd8d48988d16c941735,4e8e07e74901aab81ad7b736,46.585037,-120.561462
Jack in the Box,Burger Joint,4bf58dd8d48988d16c941735,4cbc5bd37a5d9eb0c26531e9,46.61455570716162,-120.51250129938126
Carl's Jr.,Burger Joint,4bf58dd8d48988d16c941735,503fcc5ae4b0741ad085433a,46.56965662467124,-120.48738623921116
Majors,Burger Joint,4bf58dd8d48988d16c941735,4c1fa8dbfcf8c9b6b6fdae0b,46.603607037708045,-120.53226977614536
Jack in the Box,Burger Joint,4bf58dd8d48988d16c941735,4b92bad4f964a520051634e3,46.56890441394721,-120.48560678958893
Ballesteri's,American Restaurant,4bf58dd8d48988d14e941735,4c813e2d2f1c236a78f02d43,46.600416,-120.562714
Wendy’s,Burger Joint,4bf58dd8d48988d16c941735,4bfec35e369476b0a2d18c1f,46.61458969116211,-120.51158142089844
Wendy’s,Burger Joint,4bf58dd8d48988d16c941735,4bb2a3b62397b7138a5537b3,46.569654,-120.487371
Burger Ranch,Burger Joint,4bf58dd8d48988d16c941735,4bc8d3ce0687ef3b69afd8cc,46.601664,-120.505335
Arctic Circle,Burger Joint,4bf58dd8d48988d16c941735,4bd4fe085631c9b6798ea330,46.612701416015625,-120.51168823242188
Yakima Regional Cafeteria,Cafeteria,4bf58dd8d48988d128941735,50bd0209e4b088caff9feb35,46.59652271504874,-120.52078332899342
7-Eleven,Convenience Store,4d954b0ea243a5684a65b473,4cd865f08f949eb0902e75ae,46.6128318,-120.5311722
40th Ave Espresso,Café,4bf58dd8d48988d16d941735,4d91d6edf5388cfa1cb6bd3d,46.61993232782052,-120.56112300972059
7-Eleven,Café,4bf58dd8d48988d16d941735,4cd8592d8f949eb0ea2675ae,46.5994291926233,-120.530050992965
Waffles Caffe,Café,4bf58dd8d48988d16d941735,4bdc55032a3a0f47bb57b2b6,46.58467658966356,-120.60637883793324
Hummingbird Cafe,Caribbean Restaurant,4bf58dd8d48988d144941735,4e07a87218a8382643b60c4e,46.60210093663188,-120.50869215635753
Bella Brew,Café,4bf58dd8d48988d16d941735,5e3acb5fe060a100083d53aa,46.448082873028866,-120.4220308723526
Cabin Espresso,Café,4bf58dd8d48988d16d941735,55e1ebbf498eea3f05e4cd23,46.55850902398295,-120.59293532356466
The Cafe at Stone Church,Café,4bf58dd8d48988d16d941735,54f9df56498ef916fa5d4f09,46.60770372404696,-120.55271048059222
Dreamgirls Espresso,Café,4bf58dd8d48988d16d941735,5132c283e4b02c44648f7257,46.585269927978516,-120.49103546142578
Cruisin Coffee,Café,4bf58dd8d48988d16d941735,4bd335f2b221c9b68a24d9d0,46.585140259352954,-120.55192669627831
Java Heaven,Café,4bf58dd8d48988d16d941735,4d502e4b9b27721ed479ab46,46.59815979003906,-120.51042175292969
Coffee At Creekside,Café,4bf58dd8d48988d16d941735,4c337428213c2d7f0bf9365d,46.577104999999996,-120.56063600000002
fuel coffee house,Café,4bf58dd8d48988d16d941735,53949d79498e2f399060dc92,46.60331344604492,-120.50682830810547
Mr. Mo's Espresso,Café,4bf58dd8d48988d16d941735,588703cf32b0726146a20969,46.65623092651367,-120.53074645996094
Viera’s Bakery & Deli,Deli / Bodega,4bf58dd8d48988d146941735,5adf44b14f0e584387f2682f,46.603546,-120.517854
Taste & See Deli - Bakery,Deli / Bodega,4bf58dd8d48988d146941735,57d95a22cd100b84fed3a322,46.59433,-120.52279
Deep Sea Deli,Deli / Bodega,4bf58dd8d48988d146941735,4e29c894c65bcaf4001c5808,46.59891891479492,-120.52165985107422
Marketplace Deli,Deli / Bodega,4bf58dd8d48988d146941735,4c3378b1a0ced13aacaf166e,46.60275650024414,-120.50255584716797
Applecart Deli,Deli / Bodega,4bf58dd8d48988d146941735,4f32691919836c91c7d51ea6,46.732008,-120.700907
Walmart Bakery,Deli / Bodega,4bf58dd8d48988d146941735,5992d9fb9ad60e60ffa1fe36,46.60312,-120.48162
Walmart Bakery,Deli / Bodega,4bf58dd8d48988d146941735,59934f1e149946028107399f,46.58569776,-120.5969603
Liquor & More Store,Deli / Bodega,4bf58dd8d48988d146941735,56bc8aaa498edb4f52646f2c,46.649269104003906,-120.53093719482422
Flightline Convenience Center,Deli / Bodega,4bf58dd8d48988d146941735,4f322b7419836c91c7bd086c,46.573692321777344,-120.54776763916016
Poochie's,Deli / Bodega,4bf58dd8d48988d146941735,4bc76e7792b376b0e5b44f3a,46.596864000000004,-120.51033799999999
Wonder Bread Bakery & Thrift Shop,Bakery,4bf58dd8d48988d16a941735,4cf824aece1da1cdfc2ac6e1,46.57035827636719,-120.50914764404297
Glaciers Frozen Yogurt,Frozen Yogurt Shop,512e7cae91d4cbb4e5efe0af,50061782e4b0aba26d490561,46.605948,-120.446757
Yogurt Shack Frozen Yogurt,Frozen Yogurt Shop,512e7cae91d4cbb4e5efe0af,4f03a8129a52357321e7d238,46.596097623844756,-120.60484016229728
Dairy Queen,Ice Cream Shop,4bf58dd8d48988d1c9941735,4bb1a551f964a5205d9d3ce3,46.5854551401947,-120.60726567187885
Baskin-Robbins,Ice Cream Shop,4bf58dd8d48988d1c9941735,4f997b49d4f21823bb1f4d5c,46.583099623004905,-120.49483441840266
Baskin-Robbins,Ice Cream Shop,4bf58dd8d48988d1c9941735,4c532239f5f3d13ab352fef7,46.585175,-120.559504
Dairy Queen,Ice Cream Shop,4bf58dd8d48988d1c9941735,4bd4f4736798ef3b33c3628d,46.60499173251761,-120.49515738168338
La Michoacana,Ice Cream Shop,4bf58dd8d48988d1c9941735,58d2e8164f218a176b7c2d0a,46.583935,-120.486511
Yo Yakima,Ice Cream Shop,4bf58dd8d48988d1c9941735,4f48626ee4b0a69abc26671f,46.567555,-120.483603
Dairy Queen,Ice Cream Shop,4bf58dd8d48988d1c9941735,4f6f81a8e4b0541c6352a07e,46.44543673804876,-120.42029902338982
Red Mango,Ice Cream Shop,4bf58dd8d48988d1c9941735,4f9839797bebde05e498358a,46.661647,-120.557903
Icy Tai,Ice Cream Shop,4bf58dd8d48988d1c9941735,5c8ed39a610f04002cc90410,46.58467,-120.54568
Museum Soda Fountain,Ice Cream Shop,4bf58dd8d48988d1c9941735,4c23b540905a0f47a4945e60,46.59298324584961,-120.53791809082031
Tss Yogurt,Ice Cream Shop,4bf58dd8d48988d1c9941735,4ee441b54690f8894061fe18,46.600107,-120.563558
Mel's Diner,Diner,4bf58dd8d48988d147941735,4bcb627dfb84c9b606bf1e3e,46.60644426999759,-120.50850395737956
Denny's,Diner,4bf58dd8d48988d147941735,4bc9be21cc8cd13ae809bccf,46.56256982375439,-120.47471031546593
Don's Donuts & Julie's Java,Donut Shop,4bf58dd8d48988d148941735,4ec523510e617a27f9fd2c32,46.58515,-120.52134
"Montiel, Es Bakery",Donut Shop,4bf58dd8d48988d148941735,5d2ca3d1e97aae002dea26e1,46.644817,-120.53007
Blissful Bites,Donut Shop,4bf58dd8d48988d148941735,5ce058ab75eee4002c75f19d,46.66416188644547,-120.52386120139641
Imogene's Of Yakima,Food Truck,4bf58dd8d48988d1cb941735,55a996eb498ebb931111517f,46.576419830322266,-120.43507385253906
Spudawgy's,Food Truck,4bf58dd8d48988d1cb941735,4f304700e4b0599151fcc8c9,46.570685,-120.486804
Sticky Fingers Bakery & Cafe,American Restaurant,4bf58dd8d48988d14e941735,4bd1ec58caff95216aa6d1f0,46.731983,-120.7008881
The Drift Inn Restaurant,Diner,4bf58dd8d48988d147941735,4f32a8f519836c91c7ed558e,46.728946685791016,-120.70703887939453
KFC,Fried Chicken Joint,4d4ae6fc7a7b7dea34424761,4baa7e49f964a520c76e3ae3,46.56791198921244,-120.48432136341245
The Rec Room,Pub,4bf58dd8d48988d11b941735,4dddca2c52b155583df4a6b6,46.592096000000005,-120.578713
Jenny Mae's Gluten Free Goodies,Bakery,4bf58dd8d48988d16a941735,4c795b0493ef236ae843af0f,46.557793,-120.62052
SpudZone2,Gluten-free Restaurant,4c2cd86ed066bed06c3c5209,532fd033498e69d80dc31def,46.56836629816855,-120.47465510489776
Shish Kabob,Greek Restaurant,4bf58dd8d48988d10e941735,562bf4df498e81a204992350,46.652704,-120.530046
greek kabob,Greek Restaurant,4bf58dd8d48988d10e941735,5015a87ee4b0b186e56c7c12,46.585238000000004,-120.553807
Winey Dog Food Truck,Hot Dog Joint,4bf58dd8d48988d16f941735,5b3bd73bb9b37b002c509591,46.599976,-120.5171
Chad's Chili Dogs,Hot Dog Joint,4bf58dd8d48988d16f941735,59b1cab986bc495bcfcce584,46.56597,-120.48284
McGuires,Irish Pub,52e81612bcbc57f1066b7a06,4c00b113ad46c9b69af78f66,46.593055524740585,-120.57360680026598
Mickey's Pub,Bar,4bf58dd8d48988d116941735,51217de5e4b0c66bdcdb72c3,46.601196,-120.503581
The Garden Grille & Bar,Italian Restaurant,4bf58dd8d48988d110941735,538bdc39498ea2dd8e3a1db0,46.60358,-120.500925
Jamba Juice,Juice Bar,4bf58dd8d48988d112941735,5c535dcb64c8e10039d6e5f2,46.585078,-120.542944
Jugos Nutricionales,Juice Bar,4bf58dd8d48988d112941735,54415751498e73da9d7aceda,46.59569549560547,-120.50336456298828
Fuente de Frutas,Juice Bar,4bf58dd8d48988d112941735,530e5672498edca56520414c,46.5702878195166,-120.4901219869692
Oasis natural,Juice Bar,4bf58dd8d48988d112941735,4f7ccd46e4b0bf87a933ca60,46.577495,-120.478492
Flippers,Juice Bar,4bf58dd8d48988d112941735,5351ca17498e936dfa44c8d4,46.58586621421283,-120.51064040104049
El Trompo Loco,Latin American Restaurant,4bf58dd8d48988d1be941735,4d85203361676dcbf50e83e4,46.60403,-120.498047
Gyro House,Mediterranean Restaurant,4bf58dd8d48988d1c0941735,58a3b93d424f933430efb064,46.585596,-120.556772
Taco Bell,Mexican Restaurant,4bf58dd8d48988d1c1941735,4b6a959ff964a52053d92be3,46.604428454799205,-120.49570582744143
The Hideout,Mexican Restaurant,4bf58dd8d48988d1c1941735,4c37c2882c8020a19fad8900,46.4447969389696,-120.41966773408912
El Porton,Mexican Restaurant,4bf58dd8d48988d1c1941735,4bcd0305b6c49c74e4df9491,46.564991,-120.48199653625488
Chronic Food's,Mexican Restaurant,4bf58dd8d48988d1c1941735,58b61fb945c3ed3ed5adbc2d,46.573484,-120.48873
taqueria el rinconsito,Mexican Restaurant,4bf58dd8d48988d1c1941735,538a56c7498ef911b525e8bf,46.58504867553711,-120.50865173339844
Tammy's Mexican Restaurant,Mexican Restaurant,4bf58dd8d48988d1c1941735,4f2c2faae4b06f8246e757cc,46.615127,-120.51226100000001
Taqueria el Rinconsito,Mexican Restaurant,4bf58dd8d48988d1c1941735,52ba0323498eb27a1a8af39e,46.61459,-120.51149199999999
LaPinChe,Mexican Restaurant,4bf58dd8d48988d1c1941735,5d25149e7ad194002349b739,46.61848,-120.511533
Xochimilco Tequila Bar & Restaurant,Mexican Restaurant,4bf58dd8d48988d1c1941735,555bd55e498ea0e92fcd6a31,46.59223037,-120.57819061
El Mirador,Mexican Restaurant,4bf58dd8d48988d1c1941735,4cb666851b0af04dd1a8d025,46.597383,-120.513801
Los Hernández Tamales,Mexican Restaurant,4bf58dd8d48988d1c1941735,5ccc8cb55455b2002cb5534e,46.58636,-120.596466
Taco Loco,Mexican Restaurant,4bf58dd8d48988d1c1941735,4bb4efc00ef1c9b625a3f412,46.602298736572266,-120.50881958007812
El Ranchero,Mexican Restaurant,4bf58dd8d48988d1c1941735,4dc1c7357d8bdb09430beeff,46.58505186,-120.50390466
Villasenor's Mexican Restaurant,Mexican Restaurant,4bf58dd8d48988d1c1941735,4c37f67c93db0f4761e22092,46.61280822753906,-120.5203857421875
Ruben's Tortilleria,Mexican Restaurant,4bf58dd8d48988d1c1941735,4db3397c5da3a76f4424dd01,46.582405,-120.49516100000001
Don Cheo's,Mexican Restaurant,4bf58dd8d48988d1c1941735,5d10448912f1720023190085,46.581493,-120.49671299999999
Puerto Escondido,Mexican Restaurant,4bf58dd8d48988d1c1941735,4f3accbde4b00bffdf9fe970,46.61324682079052,-120.51125526422662
Tacos El Rey- West Valley,Mexican Restaurant,4bf58dd8d48988d1c1941735,5af1bfcb8ad62e002c3498a6,46.59395282783381,-120.61671638541156
Tequila's,Mexican Restaurant,4bf58dd8d48988d1c1941735,4b9acd38f964a5201bd735e3,46.602874755859375,-120.50899505615234
Atilano' s Mexican Food,Mexican Restaurant,4bf58dd8d48988d1c1941735,4e1754c4b61c3f2c48784f8c,46.7278994,-120.60479045
Toro Taco,Mexican Restaurant,4bf58dd8d48988d1c1941735,582ab5951942be6a1b189ba8,46.64923,-120.52998
Cali Style,Mexican Restaurant,4bf58dd8d48988d1c1941735,53078888498eaa5e292ba0ed,46.612701416015625,-120.51168823242188
Mercedes and Family Food to Go,Mexican Restaurant,4bf58dd8d48988d1c1941735,4f32848519836c91c7df9193,46.59302520751953,-120.58369445800781
El Portal,Mexican Restaurant,4bf58dd8d48988d1c1941735,50b1915be4b0ec22e8b8ef15,46.612845,-120.520365
Perla Tapatia,Mexican Restaurant,4bf58dd8d48988d1c1941735,5569205d498e6e609029ab25,46.612833,-120.5203
Taqueria La Cabana,Mexican Restaurant,4bf58dd8d48988d1c1941735,51f9b3fd498e6f1dca935711,46.617676,-120.51113400000001
La Fonda Mexican,Mexican Restaurant,4bf58dd8d48988d1c1941735,50a1a808e4b09ea2f12b7022,46.592218,-120.557006
El Rey,Mexican Restaurant,4bf58dd8d48988d1c1941735,4bb26edb4019a593fbd236b8,46.587336,-120.495144
Salsita,Taco Place,4bf58dd8d48988d151941735,4be70cebd4f7c9b6de632720,46.592155,-120.488293
noa noa,Taco Place,4bf58dd8d48988d151941735,56400023cd1015499583272c,46.449365,-120.417101
Taco's Los Primos #2,Taco Place,4bf58dd8d48988d151941735,4c2fc73266e40f47fa90c28b,46.60759,-120.50910829
Taqueria Jaliciense,Mexican Restaurant,4bf58dd8d48988d1c1941735,4e990843d22d3f4f88d3142e,46.58499678256591,-120.49276747625821
tacos don chayo,Taco Place,4bf58dd8d48988d151941735,55e9f6be498e4f14d35dee26,46.5728,-120.546341
Taco Time,Taco Place,4bf58dd8d48988d151941735,4c5b10926407d13a3937b628,46.599479,-120.519094
Xochimilco Mexican Restaurant,Mexican Restaurant,4bf58dd8d48988d1c1941735,4bd24a18a8b3a593aca9675f,46.58517520269902,-120.53995834430862
Taqueria Uruapan,Mexican Restaurant,4bf58dd8d48988d1c1941735,4ff8c54ee4b042cc2b07920f,46.585453033447266,-120.48857116699219
Taco El Grande,Taco Place,4bf58dd8d48988d151941735,4f9de9cfe4b0b045860433f1,46.58489541791069,-120.48871774687635
Taco Shack,Mexican Restaurant,4bf58dd8d48988d1c1941735,50ff54b2e4b0f98250205140,46.65378321743555,-120.52861222984112
Memos,Mexican Restaurant,4bf58dd8d48988d1c1941735,4d671425709bb60cde05a614,46.597920965074735,-120.50445351062693
Taqueria Chapala,Mexican Restaurant,4bf58dd8d48988d1c1941735,4c86d43e56e0370407b5ada3,46.61293029785156,-120.527587890625
Kabob House,Mediterranean Restaurant,4bf58dd8d48988d1c0941735,4bd499486798ef3b70fa618d,46.585795827825315,-120.55698805419874
Tazzah,Middle Eastern Restaurant,4bf58dd8d48988d115941735,5205464a11d2676ed96f4967,46.59957504272461,-120.52891540527344
Papa Murphy's | Take 'N' Bake Pizza,Pizza Place,4bf58dd8d48988d1ca941735,4e4d3ca2bd413c4cc66fa331,46.6059386463729,-120.44688650648345
Little Caesars Pizza,Pizza Place,4bf58dd8d48988d1ca941735,5b7cc821872f7d002c121102,46.583786,-120.486305
Westside Pizza,Pizza Place,4bf58dd8d48988d1ca941735,54d96f32498e65b6e93a72ae,46.59533815255945,-120.60462245796235
Tony's Big Cheese Pizza,Pizza Place,4bf58dd8d48988d1ca941735,4c5092ae5ee81b8d6bded0fe,46.585133,-120.538602
Domino's Pizza,Pizza Place,4bf58dd8d48988d1ca941735,580064ea38faf0b90498995e,46.646193,-120.530925
Russillo's Pizza and Gelato,Pizza Place,4bf58dd8d48988d1ca941735,4bc9f10d0687ef3b35d2dacc,46.602802000000004,-120.508303
Pizza Hut,Pizza Place,4bf58dd8d48988d1ca941735,4f45243b19836ed00198de07,46.600004999999996,-120.525521
Pizza Hut,Pizza Place,4bf58dd8d48988d1ca941735,4f44debb19836ed001971d1d,46.599537,-120.586025
Valley Italian Pizza And Pasta,Italian Restaurant,4bf58dd8d48988d110941735,5a8516b8da5ede0253aab694,46.568971999999995,-120.487036
Domino's Pizza,Pizza Place,4bf58dd8d48988d1ca941735,4d12d47740e65481901d931a,46.5933035,-120.6052043
Little Caesars Pizza,Pizza Place,4bf58dd8d48988d1ca941735,52f543da11d242eeca9a4cdc,46.602071,-120.505899
Domino's Pizza,Pizza Place,4bf58dd8d48988d1ca941735,4f32118719833175d60d6213,46.59302520751953,-120.58369445800781
Domino's Pizza,Pizza Place,4bf58dd8d48988d1ca941735,4f329a2919836c91c7e7ca7d,46.603675842285156,-120.53504943847656
Domino's Pizza,Pizza Place,4bf58dd8d48988d1ca941735,4d41f112aed776ebc5de6997,46.570424881849654,-120.50924425175253
Pizza Hut,Pizza Place,4bf58dd8d48988d1ca941735,4f4532c619836ed001993cb7,46.605855,-120.507545
Tony's Pizza,Pizza Place,4bf58dd8d48988d1ca941735,4f3296ac19836c91c7e67ad1,46.57354736328125,-120.48070526123047
Pizza Express,Pizza Place,4bf58dd8d48988d1ca941735,4f3227bf19836c91c7bb9b18,46.58500671386719,-120.52175903320312
Figaro's Pizza,Pizza Place,4bf58dd8d48988d1ca941735,4f32b32f19836c91c7f12018,46.585750579833984,-120.5402603149414
Big Red's Diner,Diner,4bf58dd8d48988d147941735,4dcc8af145ddbe15f85b12d2,46.55562973022461,-120.38845825195312
5 Salsas,Food Truck,4bf58dd8d48988d1cb941735,5bf62384ea1e44002ca9e650,46.612713965975026,-120.45527114948932
Suntides Golf Course,Restaurant,4bf58dd8d48988d1c4941735,55521ae6498eb39ed57086fa,46.63575,-120.58982
Pizza Hut,Restaurant,4bf58dd8d48988d1c4941735,4c5ffd693a3703bbf314e406,46.60581088934397,-120.48917144536972
New York Teriyaki,Japanese Restaurant,4bf58dd8d48988d111941735,4c4a3f679c8d2d7f28fe3c69,46.62037221666667,-120.55981398
Taqueria Los Primos #4,Taco Place,4bf58dd8d48988d151941735,4deee538887754a6af86e9a9,46.655789,-120.530066
Papa Murphy's | Take 'N' Bake Pizza,Restaurant,4bf58dd8d48988d1c4941735,4e4d3ca6bd413c4cc66fa35d,46.6514787687827,-120.52995723619367
Pizza Hut,Restaurant,4bf58dd8d48988d1c4941735,4c5ffdad3a3703bb6315e406,46.611154498270466,-120.5611726641655
Pizza Hut,Restaurant,4bf58dd8d48988d1c4941735,4c241d99905a0f47605c5f60,46.65012,-120.53103999999999
Firing Point,Café,4bf58dd8d48988d16d941735,4c0b0592ffb8c9b611b26c61,46.67381830532981,-120.46299566639529
Carousel French Cuisine,French Restaurant,4bf58dd8d48988d10c941735,4d9d27db7958f04d5ca010fa,46.602967,-120.507646
Benje's Southern BBQ,Food Truck,4bf58dd8d48988d1cb941735,4e00d494b61c1fbe8dfba096,46.672174256654856,-120.46378970146179
Ron's Tacos & Burgers,Burger Joint,4bf58dd8d48988d16c941735,4c4cc8c2f5afa593c3e97fd6,46.603578999999996,-120.53020900000001
Domino's Pizza,Restaurant,4bf58dd8d48988d1c4941735,4c4246613735be9a78ce19a4,46.60442521824385,-120.49432183911449
Mercedes & Family Mexican Take-out,Food Truck,4bf58dd8d48988d1cb941735,4b9c0e91f964a520854536e3,46.603525023083435,-120.53739041762663
Hoptown Pizza,Pizza Place,4bf58dd8d48988d1ca941735,4ada6216f964a520162221e3,46.4749,-120.3967
New York Teriyaki,Sushi Restaurant,4bf58dd8d48988d1d2941735,568d8e4d498e08c5960f5128,46.554219,-120.383322
Pepp'rmint Stick,Burger Joint,4bf58dd8d48988d16c941735,4b9be929f964a520c33436e3,46.547476,-120.475709
Krispy Kreme,Donut Shop,4bf58dd8d48988d148941735,57c71e64498e692f4d3a5cf1,46.567869554164325,-120.48342845164746
Nino's Mexican Grill,Mexican Restaurant,4bf58dd8d48988d1c1941735,5240f1de11d25a40db5ad370,46.57076453331778,-120.4804899903383
Santiago`s Gourmet Mexican Restaurant,Mexican Restaurant,4bf58dd8d48988d1c1941735,4bc9efbd0687ef3b97cedacc,46.602494583077956,-120.50559962473923
Papa Murphy's | Take 'N' Bake Pizza,Restaurant,4bf58dd8d48988d1c4941735,4e4d3ca3bd413c4cc66fa33c,46.58487723956022,-120.50607031140696
El Porton,Mexican Restaurant,4bf58dd8d48988d1c1941735,4bf0a5d121072d7f9e3e208b,46.591946,-120.574326
El Porton De Pepe,Mexican Restaurant,4bf58dd8d48988d1c1941735,4bba2aed7421a5935d7ac340,46.599119,-120.514842
Pizza Hut,Restaurant,4bf58dd8d48988d1c4941735,4c5ffa313a3703bb1110e406,46.58512246820623,-120.53594760602209
Taco Time,Taco Place,4bf58dd8d48988d151941735,4d6054d11939a35de37020ee,46.572333,-120.48818700000001
Papa Murphy's | Take 'N' Bake Pizza,Restaurant,4bf58dd8d48988d1c4941735,4e4f10b518a8af30fd80930c,46.60006246784896,-120.52964010811878
Wild Fired Pizza,Restaurant,4bf58dd8d48988d1c4941735,53ae18c8498e1d3791e9e410,46.558518,-120.62224099999999
Major's Burgers on 3rd,American Restaurant,4bf58dd8d48988d14e941735,4bdc46f72a3a0f47411fb2b6,46.570587153862476,-120.50979510508597
Los Hernandez Tamales,Mexican Restaurant,4bf58dd8d48988d1c1941735,4bfd9020b68d0f4710f7e857,46.550512354777744,-120.4755446722722
Powerhouse Grill,American Restaurant,4bf58dd8d48988d14e941735,4be6f6c12457a5936258ad15,46.618305,-120.56074
Tom Tom Espresso,Café,4bf58dd8d48988d16d941735,4c1e3896eac020a1a05149c2,46.593532,-120.562225
Five Guys,Burger Joint,4bf58dd8d48988d16c941735,5966cb6dc9a517028f93354b,46.57532279910157,-120.4898084050426
Panda Express,Chinese Restaurant,4bf58dd8d48988d145941735,4bb00afff964a5209f333ce3,46.57385083924606,-120.48893608518686
The Pub of Yakima,Restaurant,4bf58dd8d48988d1c4941735,55ebb4d0498ece8f39027c91,46.59223,-120.578034
"Old Town Station Restaurant, Inc.",American Restaurant,4bf58dd8d48988d14e941735,4bcbb4d10687ef3b9f51decc,46.563401,-120.48028000000001
Famous Dave's,BBQ Joint,4bf58dd8d48988d1df931735,52097f3511d20ecba6ad1e01,46.57013480338344,-120.4808544933538
MOD Pizza,Restaurant,4bf58dd8d48988d1c4941735,59a79b88acb00b0a4edec634,46.5747888,-120.48961666
Applebee's Grill + Bar,Restaurant,4bf58dd8d48988d1c4941735,4c37c4a618e72d7f323617f5,46.57062132,-120.4809763
McDonald's,Restaurant,4bf58dd8d48988d1c4941735,52b9ee1d498e45ad1b3314ea,46.60237,-120.506733
Famous Burgers & Teriyaki Sandwich,Burger Joint,4bf58dd8d48988d16c941735,4c6adb2a0c3ac9b63aa6d038,46.604271999999995,-120.51636299999998
KFC,Restaurant,4bf58dd8d48988d1c4941735,4c080ff0009a0f478482e5bf,46.59861758468514,-120.5143509036875
Dickey's Barbecue Pit,BBQ Joint,4bf58dd8d48988d1df931735,552447e7498e4d37d3c3760b,46.584529876708984,-120.54557037353516
Northtown Coffeehouse,Café,4bf58dd8d48988d16d941735,4da8cb5e1e72c1ab9bcc5914,46.64804696361489,-120.53076830892586
Provisions Restaurant + Market,Restaurant,4bf58dd8d48988d1c4941735,4b96f4cbf964a52031f034e3,46.60619013308333,-120.46298607504532
Red Robin Gourmet Burgers and Brews,Burger Joint,4bf58dd8d48988d16c941735,4b98439ef964a5202a3835e3,46.58515657,-120.544793
Taj Palace,Indian Restaurant,4bf58dd8d48988d10f941735,4c26a67d136d20a1c5cae561,46.58518331531904,-120.54653420206711
McDonald's,Restaurant,4bf58dd8d48988d1c4941735,4bbce38d4e069c744a0e9ee3,46.61839516842181,-120.56167960166931
Tailgaters Bar & Grill,Restaurant,4bf58dd8d48988d1c4941735,57c78857498eb6ed6e25848d,46.6509771,-120.5281826
Ay Caramba,Mexican Restaurant,4bf58dd8d48988d1c1941735,4dcde304d22deadedd4549b0,46.620994292683996,-120.56294281734124
Shari's Cafe and Pies,American Restaurant,4bf58dd8d48988d14e941735,4c89b35c2e3337048a89bd41,46.620907,-120.559129
El Parrillon Loco De Tom and Jerry,Mexican Restaurant,4bf58dd8d48988d1c1941735,4ec8465f0e017e2f9ae84b99,46.609368234163504,-120.50910929906155
White House Cafe,Breakfast Spot,4bf58dd8d48988d143941735,4bafa1a5f964a520d4113ce3,46.610286,-120.558237
panda express,Chinese Restaurant,4bf58dd8d48988d145941735,501b2a57e4b0e3507b63339e,46.585359000000004,-120.59770900000001
Ozeki Japanese Restaurant,Sushi Restaurant,4bf58dd8d48988d1d2941735,4bccaee0511f95219772b3c7,46.60008547126872,-120.53009583513517
Popeyes Louisiana Kitchen,Fried Chicken Joint,4d4ae6fc7a7b7dea34424761,59d31a641c675b5d7abd9599,46.584936,-120.542576
Bob's Burgers & Brew,Burger Joint,4bf58dd8d48988d16c941735,4b6a2588f964a52033ca2be3,46.60896804500002,-120.4920363458418
McDonald's,Restaurant,4bf58dd8d48988d1c4941735,4c09941effb8c9b6f5346a61,46.64716587894726,-120.52991688251495
Kyoto Japanese Steakhouse,Japanese Restaurant,4bf58dd8d48988d111941735,56188ca6498eb6bebfba6c28,46.572169,-120.541529
Antojitas Mexicanos,Mexican Restaurant,4bf58dd8d48988d1c1941735,4c01c9ba716bc9b6ae83bc55,46.59972028554631,-120.55653062515262
Abby's Pizza,Pizza Place,4bf58dd8d48988d1ca941735,4ba425b1f964a520678638e3,46.592255,-120.573366
King's Row,Burger Joint,4bf58dd8d48988d16c941735,4bfb419765fbc9b67f40916c,46.65160010294349,-120.53082148416956
Gasperetti's,Italian Restaurant,4bf58dd8d48988d110941735,4bf73a214a67c928495b23cf,46.61548629098967,-120.51169816122542
Backwoods Cafe,Breakfast Spot,4bf58dd8d48988d143941735,4d45a2827e2e5481815a6c8f,46.59203424824703,-120.49990512185427
Papa Murphy's,Pizza Place,4bf58dd8d48988d1ca941735,4bdcd1f9afe8c9b674345185,46.59246310379348,-120.5998114447337
McDonald's,Restaurant,4bf58dd8d48988d1c4941735,4b9bca33f964a520612536e3,46.599560040618194,-120.58778822422028
Taco Time,Taco Place,4bf58dd8d48988d151941735,4c3b7ba916cb2d7febf102a9,46.58552,-120.530863
El Mirador 2,Mexican Restaurant,4bf58dd8d48988d1c1941735,4b78520df964a5201cc52ee3,46.6057358939912,-120.48332492808937
Creekside West Bar & Grille,American Restaurant,4bf58dd8d48988d14e941735,4d4f5f8c253d6a31a7695829,46.57595113152093,-120.56261439932813
YTC Chow Hall,Noodle House,4bf58dd8d48988d1d1941735,4e66c6cbaeb7e985aa781733,46.674359,-120.45816086666666
Denny's,Restaurant,4bf58dd8d48988d1c4941735,56995610498e581e568d38b7,46.6199822750138,-120.55905506014824
Waffles Caffe,Breakfast Spot,4bf58dd8d48988d143941735,4b2d4ca6f964a52087d324e3,46.62131127244801,-120.51222069709833
KFC,Restaurant,4bf58dd8d48988d1c4941735,4bcf6a48a8b3a593212d625f,46.599095261917135,-120.56228268216807
New York Teriyaki and Burger,Sushi Restaurant,4bf58dd8d48988d1d2941735,4bc91767511f9521782cadc7,46.59494979028115,-120.60595966039392
El Caporal,Mexican Restaurant,4bf58dd8d48988d1c1941735,4bca0dd1fb84c9b655461c3e,46.65417730808258,-120.52999198436737
Little Caesars Pizza,Pizza Place,4bf58dd8d48988d1ca941735,4cf472c5cc61a35dfcb5259e,46.58581918768517,-120.54034461944076
Joy Garden,Korean Restaurant,4bf58dd8d48988d113941735,4d09733282aaa093c1f5d0c2,46.59293174743652,-120.58372735977173
Cowiche Canyon Kitchen & Ice House,American Restaurant,4bf58dd8d48988d14e941735,548a03e8498e32b936756529,46.602430781602095,-120.5041040145196
Zesta Cucina,Italian Restaurant,4bf58dd8d48988d110941735,4b8096aef964a520277f30e3,46.59247993514164,-120.57808765939973
Essencia Artisan Bakery,Bakery,4bf58dd8d48988d16a941735,4bd9db5f3f01c9b6916453a5,46.60326835658446,-120.50361080750801
Olive Garden,Italian Restaurant,4bf58dd8d48988d110941735,4b820c68f964a5200dc930e3,46.602640249969156,-120.50318664044683
MOD Pizza,Pizza Place,4bf58dd8d48988d1ca941735,553efdae498ec2f47075b103,46.58509288,-120.54350671
Benedicto Fruit & Produce,Salad Place,4bf58dd8d48988d1bd941735,5220edfe11d2bca7d075ea9e,46.464536,-120.480866
Miner's Drive-In,Burger Joint,4bf58dd8d48988d16c941735,4ae5060df964a52010a021e3,46.56651760351338,-120.48280348654434
SUBWAY,Sandwich Place,4bf58dd8d48988d1c5941735,4bce1098ef1095213d6e8386,46.60595290904902,-120.44663279614406
Magic's Pizza,Pizza Place,4bf58dd8d48988d1ca941735,4bf720e75efe2d7f3f7b6834,46.649845,-120.53002
SUBWAY,Sandwich Place,4bf58dd8d48988d1c5941735,4e4ddde6bd4101d0d79d195b,46.58592703115198,-120.5405397486872
SUBWAY,Sandwich Place,4bf58dd8d48988d1c5941735,4f32ace519836c91c7eece2d,46.67141,-120.710342
Sub Shop,Sandwich Place,4bf58dd8d48988d1c5941735,4be85b2fee96c92821fdfdbf,46.60334272534744,-120.50526315586139
Quiznos,Sandwich Place,4bf58dd8d48988d1c5941735,4bd9e9b6c79cc928c39a7ce9,46.600282373704026,-120.58410539301804
Bruchi's CheeseSteaks & Subs,Sandwich Place,4bf58dd8d48988d1c5941735,4de14043fa76425c542de491,46.58496008,-120.50993903
SUBWAY,Sandwich Place,4bf58dd8d48988d1c5941735,4ddb128fe4cd1a49b7d68327,46.600107,-120.563558
Subway,Sandwich Place,4bf58dd8d48988d1c5941735,5e134d6bb104f500084b7458,46.58486643780603,-120.5132067522593
Subway,Sandwich Place,4bf58dd8d48988d1c5941735,5c1af8337b385f002c87704f,46.58474,-120.51322
Jimmy John's,Sandwich Place,4bf58dd8d48988d1c5941735,4fa03a52e4b0525528d91237,46.60240820300884,-120.50463519816113
Subway,Sandwich Place,4bf58dd8d48988d1c5941735,4bd5013e5631c9b62e93a330,46.59457880606234,-120.60624195707334
SUBWAY,Sandwich Place,4bf58dd8d48988d1c5941735,4d7a8f0492baa1437a4156eb,46.58293469224312,-120.59708591648052
SUBWAY,Sandwich Place,4bf58dd8d48988d1c5941735,4c8aa1c852a98cfa595c2ee9,46.60380644552893,-120.53137190024933
SUBWAY,Sandwich Place,4bf58dd8d48988d1c5941735,4e4ddde5bd4101d0d79d1935,46.578670501708984,-120.49189758300781
SUBWAY,Sandwich Place,4bf58dd8d48988d1c5941735,4f249c2de4b0d10db0b3ce99,46.61070425986348,-120.50972519123611
Subway,Sandwich Place,4bf58dd8d48988d1c5941735,4ecbf88bf5b90c1c33ea1ea6,46.44752387443823,-120.4271560096143
Pita Pit - Temporarily Closed,Sandwich Place,4bf58dd8d48988d1c5941735,582a1165c0c33e638b730794,46.602637,-120.505062
SUBWAY,Sandwich Place,4bf58dd8d48988d1c5941735,4d98e9afb188721e10863337,46.56711178082954,-120.48478440381922
Sub Shop,Sandwich Place,4bf58dd8d48988d1c5941735,4d2e0adb49bb721e106c7b95,46.583991,-120.5403013
Jimmy John's,Sandwich Place,4bf58dd8d48988d1c5941735,541a0bdd498e3e9f1cb6adbc,46.585211,-120.543429
Subway,Sandwich Place,4bf58dd8d48988d1c5941735,4e4ddde7bd4101d0d79d1971,46.621431904311144,-120.56341311247763
SUBWAY,Sandwich Place,4bf58dd8d48988d1c5941735,4cafaac19b34199c0b50b763,46.602739337312975,-120.50495936495918
SUBWAY,Sandwich Place,4bf58dd8d48988d1c5941735,4c46674b342c1b8d97abb689,46.64661425282621,-120.53095803191184
Sub Shop of Yakima,Sandwich Place,4bf58dd8d48988d1c5941735,4ce589b63598b1f797a5688d,46.606012588063805,-120.48905116687803
SUBWAY,Sandwich Place,4bf58dd8d48988d1c5941735,4e4ddde5bd4101d0d79d1949,46.610820000000004,-120.509651
Bruchi's CheeseSteaks & Subs,Sandwich Place,4bf58dd8d48988d1c5941735,4de409157d8b2547eb29e53d,46.5654612710093,-120.47948491845949
Subway,Sandwich Place,4bf58dd8d48988d1c5941735,523cc3ac11d273738a1d0a9a,46.56911672199205,-120.47264498901613
Pasta Express,Sandwich Place,4bf58dd8d48988d1c5941735,4bc94b8acc8cd13afc85bbcf,46.61924362182617,-120.51240539550781
Deli-licious,Deli / Bodega,4bf58dd8d48988d146941735,4d72bc3d5838a093dbee0fdb,46.60005187988281,-120.52965545654297
SeaGalley,Seafood Restaurant,4bf58dd8d48988d1ce941735,4cf2f43fb3662c0f47577a30,46.56335062572162,-120.47464388856538
Red Lobster,Seafood Restaurant,4bf58dd8d48988d1ce941735,4c1d7d71b9f876b029c97d46,46.613916,-120.511168
Mariscos Nayarit,Seafood Restaurant,4bf58dd8d48988d1ce941735,5ab948744f0e583d75fb9ad2,46.592227,-120.556982
Ahoy Fish & Chips,Seafood Restaurant,4bf58dd8d48988d1ce941735,4c9969ebdb10b60c7f428a6d,46.598650217056274,-120.52240133285522
Las Gordas,Seafood Restaurant,4bf58dd8d48988d1ce941735,4f32056419833175d60a7529,46.60944366455078,-120.50908660888672
Gearjammer Travel Plaza,Snack Place,4bf58dd8d48988d1c7941735,4b947ae6f964a520f67a34e3,46.56836557532094,-120.47389438311512
Fred Meyer Gas,Snack Place,4bf58dd8d48988d1c7941735,4f198353e4b0674e00ca3e91,46.619394508321136,-120.5629066491291
Dollar Tree,Discount Store,52dea92d3cf9994f4e043dbb,4ceed0518604a1cd40f5f9c0,46.595588,-120.60625800000001
Auntie Anne's,Snack Place,4bf58dd8d48988d1c7941735,51c07d43b5896d0c80c53191,46.569929,-120.480172
Big Papas Southern Sauce,Snack Place,4bf58dd8d48988d1c7941735,57ff24d438fa4ce59e5b099d,46.57009799999999,-120.673112
Panera Bread,Bakery,4bf58dd8d48988d16a941735,563e5122cd101549914bf1a3,46.5636917,-120.4756966
Golden Coin,Chinese Restaurant,4bf58dd8d48988d145941735,4e2e242a091a15fd22f78f99,46.5847282409668,-120.53099060058594
Birrierias La Chula,Mexican Restaurant,4bf58dd8d48988d1c1941735,537d8096498ec171ba23a1cb,46.59788513183594,-120.50455474853516
Treveri Sparkle Tasting Room,Winery,4bf58dd8d48988d14b941735,4fa6e8dde4b0752c6a7eff27,46.512608301906965,-120.44970002184078
Gilbert Cellars,Wine Bar,4bf58dd8d48988d123941735,4b774ea1f964a520b9902ee3,46.60226,-120.507492
Jean's Cottage Inn,Steakhouse,4bf58dd8d48988d1cc941735,4da65c004b22737295bfd76a,46.555411,-120.474823
Yakima Steak Company,Steakhouse,4bf58dd8d48988d1cc941735,59ac8c45f0ca95663b13ce56,46.60109,-120.51246
Second Street Grill,Steakhouse,4bf58dd8d48988d1cc941735,4c34d4dd452620a174ca250f,46.60348532380835,-120.50541786221285
Outback Steakhouse,Steakhouse,4bf58dd8d48988d1cc941735,4bcbb5f00687ef3b8d53decc,46.567019855871635,-120.47344399694157
Georgia Steak House,Steakhouse,4bf58dd8d48988d1cc941735,4f4349da19834bc91f55ba0b,46.585028,-120.50861499999999
Outback Steakhouse,Steakhouse,4bf58dd8d48988d1cc941735,52f65bfc38b182419b7f02ae,46.620175594201854,-120.56336101564116
Dutch Bros Coffee,Tea Room,4bf58dd8d48988d1dc931735,5c50ac73e9b9a50026e8042d,46.573467299274135,-120.48886256506444
Dutch Bros Coffee,Tea Room,4bf58dd8d48988d1dc931735,5d098fb31543c70039ef6410,46.606676,-120.507751
Oolong Temple,Tea Room,4bf58dd8d48988d1dc931735,4f5594a2e4b05b4bc381b64a,46.657125,-120.54145
Nana Kate's,Turkish Home Cooking Restaurant,5283c7b4e4b094cb91ec88d4,54cfda39498e3b36855fcbb7,46.6650146,-120.5203368
NHV Tasting Room,Vegetarian / Vegan Restaurant,4bf58dd8d48988d1d3941735,4f4b94b21081f5c5f0e957f3,46.628904999999996,-120.621626
Bacon Cheese Parsonage,Vegetarian / Vegan Restaurant,4bf58dd8d48988d1d3941735,4f56ea36e4b0be1ce2b9e474,46.56255354989441,-120.62194974605441
Vida Health Bar,Vegetarian / Vegan Restaurant,4bf58dd8d48988d1d3941735,5de83d40a03c8a00076b3feb,46.58492660522461,-120.51250457763672
Buffalo Wild Wings,Wings Joint,4bf58dd8d48988d14c941735,54938b72498e736b8bb8870f,46.56598625338488,-120.4800546169281
Round Table Pizza,Wings Joint,4bf58dd8d48988d14c941735,4bda497f3904a593980a469e,46.621018,-120.56308259999999
Russillo's,Pizza Place,4bf58dd8d48988d1ca941735,5258cd5511d29562ba030173,46.603233,-120.508558
Sportscenter,Bar,4bf58dd8d48988d116941735,4c95aa9b58d4b60cefd03429,46.602601026180196,-120.50383546369586
